[!p[?3;4l[4l>[0m(B[?1h=[H[2J[?12l[?25h
Welcome to minicom 2.7

OPTIONS: I18n 
Compiled on Jan  1 2014, 17:13:19.
Port /dev/ttyUSB0, 22:35:54

Press CTRL-A Z for help on special keys

$GPGGA,033616.000,4220.3264,N,07105.5064,W,1,09,1.0,21.6,M,-33.8,M,,0000*54
$GPGSA,M,3,01,28,11,30,07,08,22,03,13,,,,1.5,1.0,1.2*3E
$GPRMC,033616.000,A,4220.3264,N,07105.5064,W,0.00,113.71,020217,,,A*7D
$GPGGA,033617.000,4220.3264,N,07105.5064,W,1,08,1.6,21.6,M,-33.8,M,,0000*52
$GPGSA,M,3,01,28,11,30,07,08,22,03,,,,,2.8,1.6,2.3*36
$GPRMC,033617.000,A,4220.3264,N,07105.5064,W,0.00,113.71,020217,,,A*7C
$GPGGA,033618.000,4220.3264,N,07105.5064,W,1,09,1.0,21.6,M,-33.8,M,,0000*5A
$GPGSA,M,3,01,28,11,30,07,08,22,03,13,,,,1.5,1.0,1.2*3E
$GPRMC,033618.000,A,4220.3264,N,07105.5064,W,0.00,113.71,020217,,,A*73
$GPGGA,033619.000,4220.3264,N,07105.5064,W,1,09,1.0,21.6,M,-33.8,M,,0000*5B
$GPGSA,M,3,01,28,11,30,07,08,22,03,13,,,,1.5,1.0,1.2*3E
$GPGSV,3,1,12,01,67,104,51,28,61,319,39,11,61,063,48,30,52,225,38*71
$GPGSV,3,2,12,07,28,184,40,08,27,064,39,22,17,117,21,03,09,135,20*77
$GPGSV,3,3,12,13,08,289,17,17,30,261,27,19,10,253,22,51,29,227,*75
$GPRMC,033619.000,A,4220.3264,N,07105.5064,W,0.00,113.71,020217,,,A*72
[23;80H [24;1H$GPGGA,033620.000,4220.3264,N,07105.5064,W,1,08,1.6,21.7,M,-33.8,M,,0000*57
[23;80H [24;1H$GPGSA,M,3,01,28,11,30,07,08,22,03,,,,,2.8,1.6,2.3*36
[23;80H [24;1H$GPRMC,033620.000,A,4220.3264,N,07105.5064,W,0.00,113.71,020217,,,A*78
[23;80H [24;1H$GPGGA,033621.000,4220.3257,N,07105.5063,W,1,08,1.6,21.8,M,-33.8,M,,0000*5E
[23;80H [24;1H$GPGSA,M,3,01,28,11,30,07,08,22,03,,,,,2.8,1.6,2.3*36
[23;80H [24;1H$GPRMC,033621.000,A,4220.3257,N,07105.5063,W,0.14,113.71,020217,,,A*7B
[23;80H [24;1H$GPGGA,033622.000,4220.3257,N,07105.5063,W,1,08,1.6,21.8,M,-33.8,M,,0000*5D
[23;80H [24;1H$GPGSA,M,3,01,28,11,30,07,08,22,03,,,,,2.8,1.6,2.3*36
[23;80H [24;1H$GPRMC,033622.000,A,4220.3257,N,07105.5063,W,0.00,113.71,020217,,,A*7D
[23;80H [24;1H$GPGGA,033623.000,4220.3257,N,07105.5063,W,1,08,1.6,21.8,M,-33.8,M,,0000*5C
[23;80H [24;1H$GPGSA,M,3,01,28,11,30,07,08,22,03,,,,,2.8,1.6,2.3*36
[23;80H [24;1H$GPRMC,033623.000,A,4220.3257,N,07105.5063,W,0.00,113.71,020217,,,A*7C
[23;80H [24;1H$GPGGA,033624.000,4220.3257,N,07105.5063,W,1,08,1.6,21.9,M,-33.8,M,,0000*5A
[23;80H [24;1H$GPGSA,M,3,01,28,11,30,07,08,22,03,,,,,2.8,1.6,2.3*36
[23;80H [24;1H$GPGSV,3,1,12,01,67,104,51,28,61,319,40,11,61,063,48,30,52,225,48*78
[23;80H [24;1H$GPGSV,3,2,12,07,28,184,43,08,27,064,39,22,17,117,21,03,09,135,20*74
[23;80H [24;1H$GPGSV,3,3,12,17,30,261,27,19,10,253,23,51,29,227,41,13,08,289,*77
[23;80H [24;1H$GPRMC,033624.000,A,4220.3257,N,07105.5063,W,0.00,113.71,020217,,,A*7B
[23;80H [24;1H$GPGGA,033625.000,4220.3257,N,07105.5063,W,1,08,1.6,21.9,M,-33.8,M,,0000*5B
[23;80H [24;1H$GPGSA,M,3,01,28,11,30,07,08,22,03,,,,,2.8,1.6,2.3*36
[23;80H [24;1H$GPRMC,033625.000,A,4220.3257,N,07105.5063,W,0.00,113.71,020217,,,A*7A
[23;80H [24;1H$GPGGA,033626.000,4220.3257,N,07105.5063,W,1,08,1.6,21.9,M,-33.8,M,,0000*58
[23;80H [24;1H$GPGSA,M,3,01,28,11,30,07,08,22,03,,,,,2.8,1.6,2.3*36
[23;80H [24;1H$GPRMC,033626.000,A,4220.3257,N,07105.5063,W,0.00,113.71,020217,,,A*79
[23;80H [24;1H$GPGGA,033627.000,4220.3258,N,07105.5063,W,2,05,3.6,21.9,M,-33.8,M,2.0,0000*76
[23;80H [24;1H$GPGSA,M,3,01,11,07,08,03,,,,,,,,4.8,3.6,3.1*38
[23;80H [24;1H$GPRMC,033627.000,A,4220.3258,N,07105.5063,W,0.00,113.71,020217,,,D*72
[23;80H [24;1H$GPGGA,033628.000,4220.3258,N,07105.5064,W,2,07,1.6,21.9,M,-33.8,M,2.0,0000*7E
[23;80H [24;1H$GPGSA,M,3,01,28,11,30,07,08,03,,,,,,2.8,1.6,2.3*36
[23;80H [24;1H$GPRMC,033628.000,A,4220.3258,N,07105.5064,W,0.00,113.71,020217,,,D*7A
[23;80H [24;1H$GPGGA,033629.000,4220.3258,N,07105.5064,W,2,07,1.6,22.0,M,-33.8,M,2.0,0000*75
[23;80H [24;1H$GPGSA,M,3,01,28,11,30,07,08,22,,,,,,2.9,1.6,2.4*33
[23;80H [24;1H$GPGSV,3,1,12,01,67,104,51,28,61,319,40,11,61,063,47,30,52,225,48*77
[23;80H [24;1H$GPGSV,3,2,12,07,28,184,43,08,27,064,39,22,17,117,19,13,08,289,14*7C
[23;80H [24;1H$GPGSV,3,3,12,17,30,261,28,19,10,253,23,51,29,227,41,03,09,135,*7C
[23;80H [24;1H$GPRMC,033629.000,A,4220.3258,N,07105.5064,W,0.00,113.71,020217,,,D*7B
[23;80H [24;1H$GPGGA,033630.000,4220.3258,N,07105.5064,W,2,07,1.6,22.0,M,-33.8,M,3.0,0000*7C
[23;80H [24;1H$GPGSA,M,3,01,28,11,30,07,08,22,,,,,,2.9,1.6,2.4*33
[23;80H [24;1H$GPRMC,033630.000,A,4220.3258,N,07105.5064,W,0.00,113.71,020217,,,D*73
[23;80H [24;1H$GPGGA,033631.000,4220.3258,N,07105.5064,W,2,07,1.6,22.0,M,-33.8,M,4.0,0000*7A
[23;80H [24;1H$GPGSA,M,3,01,28,11,30,07,08,22,,,,,,2.9,1.6,2.4*33
[23;80H [24;1H$GPRMC,033631.000,A,4220.3258,N,07105.5064,W,0.00,113.71,020217,,,D*72
[23;80H [24;1H$GPGGA,033632.000,4220.3258,N,07105.5064,W,2,07,1.6,22.0,M,-33.8,M,2.0,0000*7F
[23;80H [24;1H$GPGSA,M,3,01,28,11,30,07,08,22,,,,,,2.9,1.6,2.4*33
[23;80H [24;1H$GPRMC,033632.000,A,4220.3258,N,07105.5064,W,0.00,113.71,020217,,,D*71
[23;80H [24;1H$GPGGA,033633.000,4220.3258,N,07105.5064,W,2,07,1.6,22.0,M,-33.8,M,2.0,0000*7E
[23;80H [24;1H$GPGSA,M,3,01,28,11,30,07,08,22,,,,,,2.9,1.6,2.4*33
[23;80H [24;1H$GPRMC,033633.000,A,4220.3258,N,07105.5064,W,0.00,113.71,020217,,,D*70
[23;80H [24;1H$GPGGA,033634.000,4220.3258,N,07105.5064,W,2,07,1.6,22.1,M,-33.8,M,2.0,0000*78
[23;80H [24;1H$GPGSA,M,3,01,28,11,30,07,08,22,,,,,,2.9,1.6,2.4*33
[23;80H [24;1H$GPGSV,3,1,12,01,67,104,51,28,61,319,40,11,61,063,47,30,52,225,49*76
[23;80H [24;1H$GPGSV,3,2,12,07,28,184,42,08,27,064,39,22,17,117,18,17,30,261,29*7B
[23;80H [24;1H$GPGSV,3,3,12,19,10,253,24,51,29,227,41,03,09,135,,13,08,289,*78
[23;80H [24;1H$GPRMC,033634.000,A,4220.3258,N,07105.5064,W,0.00,113.71,020217,,,D*77
[23;80H [24;1H$GPGGA,033635.000,4220.3258,N,07105.5064,W,2,07,1.6,22.1,M,-33.8,M,2.0,0000*79
[23;80H [24;1H$GPGSA,M,3,01,28,11,30,07,08,22,,,,,,2.9,1.6,2.4*33
[23;80H [24;1H$GPRMC,033635.000,A,4220.3258,N,07105.5064,W,0.00,113.71,020217,,,D*76
[23;80H [24;1H$GPGGA,033636.000,4220.3258,N,07105.5064,W,2,07,1.6,22.1,M,-33.8,M,3.0,0000*7B
[23;80H [24;1H$GPGSA,M,3,01,28,11,30,07,08,22,,,,,,2.9,1.6,2.4*33
[23;80H [24;1H$GPRMC,033636.000,A,4220.3258,N,07105.5064,W,0.00,113.71,020217,,,D*75
[23;80H [24;1H$GPGGA,033637.000,4220.3258,N,07105.5064,W,2,07,1.6,22.1,M,-33.8,M,4.0,0000*7D
[23;80H [24;1H$GPGSA,M,3,01,28,11,30,07,08,22,,,,,,2.9,1.6,2.4*33
[23;80H [24;1H$GPRMC,033637.000,A,4220.3258,N,07105.5064,W,0.00,113.71,020217,,,D*74
[23;80H [24;1H$GPGGA,033638.000,4220.3258,N,07105.5064,W,2,06,1.7,22.1,M,-33.8,M,2.0,0000*74
[23;80H [24;1H$GPGSA,M,3,01,28,11,30,07,08,,,,,,,3.1,1.7,2.6*39
[23;80H [24;1H$GPRMC,033638.000,A,4220.3258,N,07105.5064,W,0.00,113.71,020217,,,D*7B
[23;80H [24;1H$GPGGA,033639.000,4220.3258,N,07105.5065,W,2,07,1.1,22.1,M,-33.8,M,2.0,0000*73
[23;80H [24;1H$GPGSA,M,3,01,28,11,30,07,08,13,,,,,,1.9,1.1,1.5*37
[23;80H [24;1H$GPGSV,3,1,12,01,67,104,51,28,61,319,40,11,60,063,46,30,52,225,49*76
[23;80H [24;1H$GPGSV,3,2,12,07,28,184,42,08,27,064,40,13,08,289,25,17,30,261,30*7B
[23;80H [24;1H$GPGSV,3,3,12,19,10,253,24,51,29,227,41,22,17,117,,03,10,135,*78
[23;80H [24;1H$GPRMC,033639.000,A,4220.3258,N,07105.5065,W,0.00,113.71,020217,,,D*7B
[23;80H [24;1H$GPGGA,033640.000,4220.3258,N,07105.5064,W,2,07,1.1,22.2,M,-33.8,M,2.0,0000*7F
[23;80H [24;1H$GPGSA,M,3,01,28,11,30,07,08,13,,,,,,1.9,1.1,1.5*37
[23;80H [24;1H$GPRMC,033640.000,A,4220.3258,N,07105.5064,W,0.00,113.71,020217,,,D*74
[23;80H [24;1H$GPGGA,033641.000,4220.3251,N,07105.5063,W,2,08,1.0,22.2,M,-33.8,M,2.0,0000*7E
[23;80H [24;1H$GPGSA,M,3,01,28,11,30,07,08,22,13,,,,,1.6,1.0,1.3*3F
[23;80H [24;1H$GPRMC,033641.000,A,4220.3251,N,07105.5063,W,0.12,113.71,020217,,,D*78
[23;80H [24;1H$GPGGA,033642.000,4220.3251,N,07105.5063,W,2,08,1.0,22.2,M,-33.8,M,3.0,0000*7C
[23;80H [24;1H$GPGSA,M,3,01,28,11,30,07,08,22,13,,,,,1.6,1.0,1.3*3F
[23;80H [24;1H$GPRMC,033642.000,A,4220.3251,N,07105.5063,W,0.00,113.71,020217,,,D*78
[23;80H [24;1H$GPGGA,033643.000,4220.3251,N,07105.5063,W,2,08,1.0,22.2,M,-33.8,M,4.0,0000*7A
[23;80H [24;1H$GPGSA,M,3,01,28,11,30,07,08,22,13,,,,,1.6,1.0,1.3*3F
[23;80H [24;1H$GPRMC,033643.000,A,4220.3251,N,07105.5063,W,0.00,113.71,020217,,,D*79
[23;80H [24;1H$GPGGA,033644.000,4220.3251,N,07105.5063,W,2,07,1.6,22.2,M,-33.8,M,5.0,0000*75
[23;80H [24;1H$GPGSA,M,3,01,28,11,30,07,08,22,,,,,,2.9,1.6,2.4*33
[23;80H [24;1H$GPGSV,3,1,12,01,67,104,51,28,61,319,41,11,60,063,46,30,52,225,49*77
[23;80H [24;1H$GPGSV,3,2,12,07,28,184,42,08,27,064,41,22,17,117,27,17,30,261,31*71
[23;80H [24;1H$GPGSV,3,3,12,19,10,253,26,51,29,227,42,03,10,135,,13,08,289,*71
[23;80H [24;1H$GPRMC,033644.000,A,4220.3251,N,07105.5063,W,0.00,113.71,020217,,,D*7E
[23;80H [24;1H$GPGGA,033645.000,4220.3250,N,07105.5063,W,2,07,1.6,22.2,M,-33.8,M,2.0,0000*72
[23;80H [24;1H$GPGSA,M,3,01,28,11,30,07,08,22,,,,,,2.9,1.6,2.4*33
[23;80H [24;1H$GPRMC,033645.000,A,4220.3250,N,07105.5063,W,0.00,113.71,020217,,,D*7E
[23;80H [24;1H$GPGGA,033646.000,4220.3250,N,07105.5063,W,2,07,1.6,22.3,M,-33.8,M,2.0,0000*70
[23;80H [24;1H$GPGSA,M,3,01,28,11,30,07,08,22,,,,,,2.9,1.6,2.4*33
[23;80H [24;1H$GPRMC,033646.000,A,4220.3250,N,07105.5063,W,0.00,113.71,020217,,,D*7D
[23;80H [24;1H$GPGGA,033647.000,4220.3244,N,07105.5062,W,2,07,1.6,22.3,M,-33.8,M,2.0,0000*75
[23;80H [24;1H$GPGSA,M,3,01,28,11,30,07,08,22,,,,,,2.9,1.6,2.4*33
[23;80H [24;1H$GPRMC,033647.000,A,4220.3244,N,07105.5062,W,0.08,113.71,020217,,,D*70
[23;80H [24;1H$GPGGA,033648.000,4220.3244,N,07105.5062,W,2,06,1.7,22.3,M,-33.8,M,,0000*56
[23;80H [24;1H$GPGSA,M,3,01,28,11,30,07,08,,,,,,,3.1,1.7,2.6*39
[23;80H [24;1H$GPRMC,033648.000,A,4220.3244,N,07105.5062,W,0.00,113.71,020217,,,D*77
[23;80H [24;1H$GPGGA,033649.000,4220.3244,N,07105.5062,W,2,07,1.1,22.3,M,-33.8,M,3.0,0000*7D
[23;80H [24;1H$GPGSA,M,3,01,28,11,30,07,08,13,,,,,,1.9,1.1,1.5*37
[23;80H [24;1H$GPGSV,3,1,12,01,67,104,51,28,61,319,41,11,60,063,44,30,52,225,49*75
[23;80H [24;1H$GPGSV,3,2,12,07,28,184,42,08,27,064,40,13,08,289,23,17,30,261,31*7C
[23;80H [24;1H$GPGSV,3,3,12,19,10,253,27,22,17,117,28,51,29,227,40,03,10,135,*70
[23;80H [24;1H$GPRMC,033649.000,A,4220.3244,N,07105.5062,W,0.00,113.71,020217,,,D*76
[23;80H [24;1H$GPGGA,033650.000,4220.3244,N,07105.5062,W,2,07,1.1,22.3,M,-33.8,M,4.0,0000*72
[23;80H [24;1H$GPGSA,M,3,01,28,11,30,07,08,13,,,,,,1.9,1.1,1.5*37
[23;80H [24;1H$GPRMC,033650.000,A,4220.3244,N,07105.5062,W,0.00,113.71,020217,,,D*7E
[23;80H [24;1H$GPGGA,033651.000,4220.3244,N,07105.5062,W,2,07,1.1,22.3,M,-33.8,M,2.0,0000*75
[23;80H [24;1H$GPGSA,M,3,01,28,11,30,07,08,13,,,,,,1.9,1.1,1.5*37
[23;80H [24;1H$GPRMC,033651.000,A,4220.3244,N,07105.5062,W,0.00,113.71,020217,,,D*7F
[23;80H [24;1H$GPGGA,033652.000,4220.3243,N,07105.5062,W,2,07,1.1,22.4,M,-33.8,M,2.0,0000*76
[23;80H [24;1H$GPGSA,M,3,01,28,11,30,07,08,13,,,,,,1.9,1.1,1.5*37
[23;80H [24;1H$GPRMC,033652.000,A,4220.3243,N,07105.5062,W,0.00,113.71,020217,,,D*7B
[23;80H [24;1H$GPGGA,033653.000,4220.3237,N,07105.5060,W,2,06,1.7,22.3,M,-33.8,M,,0000*5A
[23;80H [24;1H$GPGSA,M,3,01,28,11,30,07,08,,,,,,,3.1,1.7,2.6*39
[23;80H [24;1H$GPRMC,033653.000,A,4220.3237,N,07105.5060,W,0.12,113.71,020217,,,D*78
[23;80H [24;1H$GPGGA,033654.000,4220.3237,N,07105.5060,W,2,06,1.7,22.3,M,-33.8,M,3.0,0000*70
[23;80H [24;1H$GPGSA,M,3,01,28,11,30,07,08,,,,,,,3.1,1.7,2.6*39
[23;80H [24;1H$GPGSV,3,1,12,01,67,104,51,28,61,319,42,11,60,063,44,30,52,225,49*76
[23;80H [24;1H$GPGSV,3,2,12,07,28,184,42,08,27,064,39,17,30,261,28,19,10,253,27*7A
[23;80H [24;1H$GPGSV,3,3,12,22,17,117,14,51,29,227,42,03,10,135,,13,08,289,*7C
[23;80H [24;1H$GPRMC,033654.000,A,4220.3237,N,07105.5060,W,0.00,113.71,020217,,,D*7C
[23;80H [24;1H$GPGGA,033655.000,4220.3237,N,07105.5060,W,2,06,1.7,22.3,M,-33.8,M,4.0,0000*76
[23;80H [24;1H$GPGSA,M,3,01,28,11,30,07,08,,,,,,,3.1,1.7,2.6*39
[23;80H [24;1H$GPRMC,033655.000,A,4220.3237,N,07105.5060,W,0.00,113.71,020217,,,D*7D
[23;80H [24;1H$GPGGA,033656.000,4220.3231,N,07105.5058,W,2,06,1.7,22.2,M,-33.8,M,2.0,0000*7F
[23;80H [24;1H$GPGSA,M,3,01,28,11,30,07,08,,,,,,,3.1,1.7,2.6*39
[23;80H [24;1H$GPRMC,033656.000,A,4220.3231,N,07105.5058,W,0.12,113.71,020217,,,D*70
[23;80H [24;1H$GPGGA,033657.000,4220.3231,N,07105.5058,W,2,06,1.7,22.2,M,-33.8,M,,0000*52
[23;80H [24;1H$GPGSA,M,3,01,28,11,30,07,08,,,,,,,3.1,1.7,2.6*39
[23;80H [24;1H$GPRMC,033657.000,A,4220.3231,N,07105.5058,W,0.00,113.71,020217,,,D*72
[23;80H [24;1H$GPGGA,033658.000,4220.3231,N,07105.5058,W,2,06,1.7,22.3,M,-33.8,M,,0000*5C
[23;80H [24;1H$GPGSA,M,3,01,28,11,30,07,08,,,,,,,3.1,1.7,2.6*39
[23;80H [24;1H$GPRMC,033658.000,A,4220.3231,N,07105.5058,W,0.00,113.71,020217,,,D*7D
[23;80H [24;1H$GPGGA,033659.000,4220.3231,N,07105.5058,W,2,06,1.7,22.3,M,-33.8,M,2.0,0000*71
[23;80H [24;1H$GPGSA,M,3,01,28,11,30,07,08,,,,,,,3.1,1.7,2.6*39
[23;80H [24;1H$GPGSV,3,1,12,01,67,104,51,28,61,319,42,11,60,063,45,30,52,225,49*77
[23;80H [24;1H$GPGSV,3,2,12,07,28,184,42,08,27,064,38,17,30,261,31,19,10,253,27*73
[23;80H [24;1H$GPGSV,3,3,12,51,29,227,40,22,17,117,,03,10,135,,13,08,289,*7B
[23;80H [24;1H$GPRMC,033659.000,A,4220.3231,N,07105.5058,W,0.00,113.71,020217,,,D*7C
[23;80H [24;1H$GPGGA,033700.000,4220.3231,N,07105.5058,W,2,06,1.7,22.3,M,-33.8,M,3.0,0000*7D
[23;80H [24;1H$GPGSA,M,3,01,28,11,30,07,08,,,,,,,3.1,1.7,2.6*39
[23;80H [24;1H$GPRMC,033700.000,A,4220.3231,N,07105.5058,W,0.00,113.71,020217,,,D*71
[23;80H [24;1H$GPGGA,033701.000,4220.3231,N,07105.5058,W,2,06,1.7,22.3,M,-33.8,M,,0000*51
[23;80H [24;1H$GPGSA,M,3,01,28,11,30,07,08,,,,,,,3.1,1.7,2.6*39
[23;80H [24;1H$GPRMC,033701.000,A,4220.3231,N,07105.5058,W,0.00,113.71,020217,,,D*70
[23;80H [24;1H$GPGGA,033702.000,4220.3231,N,07105.5058,W,2,06,1.7,22.3,M,-33.8,M,5.0,0000*79
[23;80H [24;1H$GPGSA,M,3,01,28,11,30,07,08,,,,,,,3.1,1.7,2.6*39
[23;80H [24;1H$GPRMC,033702.000,A,4220.3231,N,07105.5058,W,0.00,113.71,020217,,,D*73
[23;80H [24;1H$GPGGA,033703.000,4220.3231,N,07105.5058,W,2,06,1.7,22.4,M,-33.8,M,,0000*54
[23;80H [24;1H$GPGSA,M,3,01,28,11,30,07,08,,,,,,,3.1,1.7,2.6*39
[23;80H [24;1H$GPRMC,033703.000,A,4220.3231,N,07105.5058,W,0.00,113.71,020217,,,D*72
[23;80H [24;1H$GPGGA,033704.000,4220.3231,N,07105.5058,W,2,06,1.7,22.4,M,-33.8,M,,0000*53
[23;80H [24;1H$GPGSA,M,3,01,28,11,30,07,08,,,,,,,3.1,1.7,2.6*39
[23;80H [24;1H$GPGSV,3,1,12,01,67,104,51,28,61,319,42,11,60,063,46,30,52,225,49*74
[23;80H [24;1H$GPGSV,3,2,12,07,28,184,42,08,27,064,38,17,30,261,31,19,10,253,24*70
[23;80H [24;1H$GPGSV,3,3,12,22,17,117,23,51,29,227,41,03,10,135,,13,08,289,*7B
[23;80H [24;1H$GPRMC,033704.000,A,4220.3231,N,07105.5058,W,0.00,113.71,020217,,,D*75
[23;80H [24;1H$GPGGA,033705.000,4220.3231,N,07105.5058,W,2,06,1.7,22.4,M,-33.8,M,,0000*52
[23;80H [24;1H$GPGSA,M,3,01,28,11,30,07,08,,,,,,,3.1,1.7,2.6*39
[23;80H [24;1H$GPRMC,033705.000,A,4220.3231,N,07105.5058,W,0.00,113.71,020217,,,D*74
[23;80H [24;1H$GPGGA,033706.000,4220.3231,N,07105.5058,W,2,06,1.7,22.4,M,-33.8,M,3.0,0000*7C
[23;80H [24;1H$GPGSA,M,3,01,28,11,30,07,08,,,,,,,3.1,1.7,2.6*39
[23;80H [24;1H$GPRMC,033706.000,A,4220.3231,N,07105.5058,W,0.00,113.71,020217,,,D*77
[23;80H [24;1H$GPGGA,033707.000,4220.3231,N,07105.5058,W,2,06,1.7,22.4,M,-33.8,M,4.0,0000*7A
[23;80H [24;1H$GPGSA,M,3,01,28,11,30,07,08,,,,,,,3.1,1.7,2.6*39
[23;80H [24;1H$GPRMC,033707.000,A,4220.3231,N,07105.5058,W,0.00,113.71,020217,,,D*76
[23;80H [24;1H$GPGGA,033708.000,4220.3231,N,07105.5058,W,2,06,1.7,22.5,M,-33.8,M,5.0,0000*75
[23;80H [24;1H$GPGSA,M,3,01,28,11,30,07,08,,,,,,,3.1,1.7,2.6*39
[23;80H [24;1H$GPRMC,033708.000,A,4220.3231,N,07105.5058,W,0.00,113.71,020217,,,D*79
[23;80H [24;1H$GPGGA,033709.000,4220.3226,N,07105.5056,W,2,06,1.7,22.4,M,-33.8,M,,0000*56
[23;80H [24;1H$GPGSA,M,3,01,28,11,30,07,08,,,,,,,3.1,1.7,2.6*39
[23;80H [24;1H$GPGSV,3,1,12,01,67,103,51,28,62,319,43,11,60,063,47,30,52,224,49*71
[23;80H [24;1H$GPGSV,3,2,12,07,27,184,41,08,27,064,38,17,30,261,30,19,10,253,27*7E
[23;80H [24;1H$GPGSV,3,3,12,22,17,117,24,51,29,227,41,03,10,134,,13,08,289,*7D
[23;80H [24;1H$GPRMC,033709.000,A,4220.3226,N,07105.5056,W,0.16,113.71,020217,,,D*77
[23;80H [24;1H$GPGGA,033710.000,4220.3226,N,07105.5056,W,2,07,1.1,22.4,M,-33.8,M,2.0,0000*75
[23;80H [24;1H$GPGSA,M,3,01,28,11,30,07,08,13,,,,,,1.9,1.1,1.5*37
[23;80H [24;1H$GPRMC,033710.000,A,4220.3226,N,07105.5056,W,0.00,113.71,020217,,,D*78
[23;80H [24;1H$GPGGA,033711.000,4220.3226,N,07105.5056,W,2,07,1.1,22.4,M,-33.8,M,2.0,0000*74
[23;80H [24;1H$GPGSA,M,3,01,28,11,30,07,08,13,,,,,,1.9,1.1,1.5*37
[23;80H [24;1H$GPRMC,033711.000,A,4220.3226,N,07105.5056,W,0.00,113.71,020217,,,D*79
[23;80H [24;1H$GPGGA,033712.000,4220.3226,N,07105.5056,W,2,07,1.1,22.4,M,-33.8,M,2.0,0000*77
[23;80H [24;1H$GPGSA,M,3,01,28,11,30,07,08,13,,,,,,1.9,1.1,1.5*37
[23;80H [24;1H$GPRMC,033712.000,A,4220.3226,N,07105.5056,W,0.00,113.71,020217,,,D*7A
[23;80H [24;1H$GPGGA,033713.000,4220.3226,N,07105.5056,W,2,06,1.7,22.4,M,-33.8,M,,0000*5D
[23;80H [24;1H$GPGSA,M,3,01,28,11,30,07,08,,,,,,,3.1,1.7,2.6*39
[23;80H [24;1H$GPRMC,033713.000,A,4220.3226,N,07105.5056,W,0.00,113.71,020217,,,D*7B
[23;80H [24;1H$GPGGA,033714.000,4220.3220,N,07105.5055,W,2,06,1.7,22.4,M,-33.8,M,,0000*5F
[23;80H [24;1H$GPGSA,M,3,01,28,11,30,07,08,,,,,,,3.1,1.7,2.6*39
[23;80H [24;1H$GPGSV,3,1,12,01,67,103,51,28,62,319,43,11,60,063,47,30,52,224,48*70
[23;80H [24;1H$GPGSV,3,2,12,07,27,184,40,08,27,064,36,13,08,289,26,17,30,261,31*75
[23;80H [24;1H$GPGSV,3,3,12,19,10,253,27,22,17,117,24,51,29,227,41,03,10,134,*7C
[23;80H [24;1H$GPRMC,033714.000,A,4220.3220,N,07105.5055,W,0.09,113.71,020217,,,D*70
[23;80H [24;1H$GPGGA,033715.000,4220.3220,N,07105.5055,W,2,06,1.7,22.4,M,-33.8,M,,0000*5E
[23;80H [24;1H$GPGSA,M,3,01,28,11,30,07,08,,,,,,,3.1,1.7,2.6*39
[23;80H [24;1H$GPRMC,033715.000,A,4220.3220,N,07105.5055,W,0.00,113.71,020217,,,D*78
[23;80H [24;1H$GPGGA,033716.000,4220.3220,N,07105.5055,W,2,06,1.7,22.4,M,-33.8,M,,0000*5D
[23;80H [24;1H$GPGSA,M,3,01,28,11,30,07,08,,,,,,,3.1,1.7,2.6*39
[23;80H [24;1H$GPRMC,033716.000,A,4220.3220,N,07105.5055,W,0.00,113.71,020217,,,D*7B
[23;80H [24;1H$GPGGA,033717.000,4220.3220,N,07105.5055,W,2,06,1.7,22.4,M,-33.8,M,,0000*5C
[23;80H [24;1H$GPGSA,M,3,01,28,11,30,07,08,,,,,,,3.1,1.7,2.6*39
[23;80H [24;1H$GPRMC,033717.000,A,4220.3220,N,07105.5055,W,0.00,113.71,020217,,,D*7A
[23;80H [24;1H$GPGGA,033718.000,4220.3220,N,07105.5055,W,2,06,1.7,22.4,M,-33.8,M,3.0,0000*7E
[23;80H [24;1H$GPGSA,M,3,01,28,11,30,07,08,,,,,,,3.1,1.7,2.6*39
[23;80H [24;1H$GPRMC,033718.000,A,4220.3220,N,07105.5055,W,0.00,113.71,020217,,,D*75
[23;80H [24;1H$GPGGA,033719.000,4220.3220,N,07105.5055,W,2,06,1.7,22.4,M,-33.8,M,4.0,0000*78
[23;80H [24;1H$GPGSA,M,3,01,28,11,30,07,08,,,,,,,3.1,1.7,2.6*39
[23;80H [24;1H$GPGSV,3,1,12,01,67,103,51,28,62,319,43,11,60,063,47,30,52,224,48*70
[23;80H [24;1H$GPGSV,3,2,12,07,27,184,38,08,27,064,30,13,08,289,21,17,30,261,32*78
[23;80H [24;1H$GPGSV,3,3,12,19,10,253,19,22,17,117,21,51,29,227,41,03,10,134,*74
[23;80H [24;1H$GPRMC,033719.000,A,4220.3220,N,07105.5055,W,0.00,113.71,020217,,,D*74
[23;80H [24;1H$GPGGA,033720.000,4220.3219,N,07105.5055,W,2,06,1.7,22.4,M,-33.8,M,,0000*52
[23;80H [24;1H$GPGSA,M,3,01,28,11,30,07,08,,,,,,,3.1,1.7,2.6*39
[23;80H [24;1H$GPRMC,033720.000,A,4220.3219,N,07105.5055,W,0.00,113.71,020217,,,D*74
[23;80H [24;1H$GPGGA,033721.000,4220.3219,N,07105.5055,W,2,06,1.7,22.4,M,-33.8,M,,0000*53
[23;80H [24;1H$GPGSA,M,3,01,28,11,30,07,08,,,,,,,3.1,1.7,2.6*39
[23;80H [24;1H$GPRMC,033721.000,A,4220.3219,N,07105.5055,W,0.00,113.71,020217,,,D*75
[23;80H [24;1H$GPGGA,033722.000,4220.3219,N,07105.5055,W,2,06,1.7,22.4,M,-33.8,M,,0000*50
[23;80H [24;1H$GPGSA,M,3,01,28,11,30,07,08,,,,,,,3.1,1.7,2.6*39
[23;80H [24;1H$GPRMC,033722.000,A,4220.3219,N,07105.5055,W,0.00,113.71,020217,,,D*76
[23;80H [24;1H$GPGGA,033723.000,4220.3219,N,07105.5055,W,2,06,1.7,22.4,M,-33.8,M,,0000*51
[23;80H [24;1H$GPGSA,M,3,01,28,11,30,07,08,,,,,,,3.1,1.7,2.6*39
[23;80H [24;1H$GPRMC,033723.000,A,4220.3219,N,07105.5055,W,0.00,113.71,020217,,,D*77
[23;80H [24;1H$GPGGA,033724.000,4220.3219,N,07105.5055,W,2,07,1.3,22.4,M,-33.8,M,3.0,0000*7E
[23;80H [24;1H$GPGSA,M,3,01,28,11,30,07,08,17,,,,,,2.4,1.3,2.0*39
[23;80H [24;1H$GPGSV,3,1,12,01,67,103,51,28,62,319,44,11,60,063,47,30,52,224,48*77
[23;80H [24;1H$GPGSV,3,2,12,07,27,184,37,08,26,064,32,17,31,261,32,03,10,134,*7B
[23;80H [24;1H$GPGSV,3,3,12,13,08,288,18,19,10,253,23,22,17,117,20,51,29,227,42*7A
[23;80H [24;1H$GPRMC,033724.000,A,4220.3219,N,07105.5055,W,0.00,113.71,020217,,,D*70
[23;80H [24;1H$GPGGA,033725.000,4220.3219,N,07105.5055,W,2,07,1.3,22.4,M,-33.8,M,4.0,0000*78
[23;80H [24;1H$GPGSA,M,3,01,28,11,30,17,07,08,,,,,,2.4,1.3,2.0*39
[23;80H [24;1H$GPRMC,033725.000,A,4220.3219,N,07105.5055,W,0.00,113.71,020217,,,D*71
[23;80H [24;1H$GPGGA,033726.000,4220.3219,N,07105.5055,W,2,07,1.3,22.4,M,-33.8,M,,0000*51
[23;80H [24;1H$GPGSA,M,3,01,28,11,30,17,07,08,,,,,,2.4,1.3,2.0*39
[23;80H [24;1H$GPRMC,033726.000,A,4220.3219,N,07105.5055,W,0.00,113.71,020217,,,D*72
[23;80H [24;1H$GPGGA,033727.000,4220.3214,N,07105.5054,W,2,07,1.3,22.1,M,-33.8,M,,0000*59
[23;80H [24;1H$GPGSA,M,3,01,28,11,30,17,07,08,,,,,,2.4,1.3,2.0*39
[23;80H [24;1H$GPRMC,033727.000,A,4220.3214,N,07105.5054,W,0.09,113.71,020217,,,D*76
[23;80H [24;1H$GPGGA,033728.000,4220.3214,N,07105.5054,W,2,07,1.3,22.1,M,-33.8,M,,0000*56
[23;80H [24;1H$GPGSA,M,3,01,28,11,30,17,07,08,,,,,,2.4,1.3,2.0*39
[23;80H [24;1H$GPRMC,033728.000,A,4220.3214,N,07105.5054,W,0.00,113.71,020217,,,D*70
[23;80H [24;1H$GPGGA,033729.000,4220.3209,N,07105.5053,W,2,07,1.3,21.9,M,-33.8,M,,0000*57
[23;80H [24;1H$GPGSA,M,3,01,28,11,30,17,07,08,,,,,,2.4,1.3,2.0*39
[23;80H [24;1H$GPGSV,3,1,12,01,67,103,51,28,62,319,44,11,60,063,47,30,52,224,48*77
[23;80H [24;1H$GPGSV,3,2,12,17,31,261,32,07,27,184,37,08,26,064,35,13,08,288,07*77
[23;80H [24;1H$GPGSV,3,3,12,19,10,253,24,22,17,117,16,51,29,227,42,03,10,134,*7D
[23;80H [24;1H$GPRMC,033729.000,A,4220.3209,N,07105.5053,W,0.13,113.71,020217,,,D*78
[23;80H [24;1H$GPGGA,033730.000,4220.3209,N,07105.5053,W,2,07,1.3,21.9,M,-33.8,M,3.0,0000*72
[23;80H [24;1H$GPGSA,M,3,01,28,11,30,17,07,08,,,,,,2.4,1.3,2.0*39
[23;80H [24;1H$GPRMC,033730.000,A,4220.3209,N,07105.5053,W,0.00,113.71,020217,,,D*72
[23;80H [24;1H$GPGGA,033731.000,4220.3204,N,07105.5052,W,2,07,1.3,21.6,M,-33.8,M,,0000*5D
[23;80H [24;1H$GPGSA,M,3,01,28,11,30,17,07,08,,,,,,2.4,1.3,2.0*39
[23;80H [24;1H$GPRMC,033731.000,A,4220.3204,N,07105.5052,W,0.14,113.71,020217,,,D*7A
[23;80H [24;1H$GPGGA,033732.000,4220.3203,N,07105.5052,W,2,07,1.3,21.6,M,-33.8,M,5.0,0000*72
[23;80H [24;1H$GPGSA,M,3,01,28,11,30,17,07,08,,,,,,2.4,1.3,2.0*39
[23;80H [24;1H$GPRMC,033732.000,A,4220.3203,N,07105.5052,W,0.01,113.71,020217,,,D*7A
[23;80H [24;1H$GPGGA,033733.000,4220.3199,N,07105.5051,W,2,07,1.3,21.4,M,-33.8,M,2.0,0000*75
[23;80H [24;1H$GPGSA,M,3,01,28,11,30,17,07,08,,,,,,2.4,1.3,2.0*39
[23;80H [24;1H$GPRMC,033733.000,A,4220.3199,N,07105.5051,W,0.22,113.71,020217,,,D*79
[23;80H [24;1H$GPGGA,033734.000,4220.3199,N,07105.5050,W,2,07,1.3,21.4,M,-33.8,M,2.0,0000*73
[23;80H [24;1H$GPGSA,M,3,01,28,11,30,17,07,08,,,,,,2.4,1.3,2.0*39
[23;80H [24;1H$GPGSV,3,1,12,01,67,103,51,28,62,319,43,11,60,063,47,30,52,224,48*70
[23;80H [24;1H$GPGSV,3,2,12,17,31,261,33,07,27,184,37,08,26,064,37,03,10,134,23*7E
[23;80H [24;1H$GPGSV,3,3,12,19,10,253,24,51,29,227,41,22,17,117,,13,08,288,*75
[23;80H [24;1H$GPRMC,033734.000,A,4220.3199,N,07105.5050,W,0.01,113.71,020217,,,D*7E
[23;80H [24;1H$GPGGA,033735.000,4220.3194,N,07105.5049,W,2,07,1.3,21.2,M,-33.8,M,2.0,0000*71
[23;80H [24;1H$GPGSA,M,3,01,28,11,30,17,07,08,,,,,,2.4,1.3,2.0*39
[23;80H [24;1H$GPRMC,033735.000,A,4220.3194,N,07105.5049,W,0.21,113.71,020217,,,D*78
[23;80H [24;1H$GPGGA,033736.000,4220.3194,N,07105.5049,W,2,07,1.3,21.2,M,-33.8,M,2.0,0000*72
[23;80H [24;1H$GPGSA,M,3,01,28,11,30,17,07,08,,,,,,2.4,1.3,2.0*39
[23;80H [24;1H$GPRMC,033736.000,A,4220.3194,N,07105.5049,W,0.01,113.71,020217,,,D*79
[23;80H [24;1H$GPGGA,033737.000,4220.3190,N,07105.5048,W,2,07,1.3,21.0,M,-33.8,M,,0000*58
[23;80H [24;1H$GPGSA,M,3,01,28,11,30,17,07,08,,,,,,2.4,1.3,2.0*39
[23;80H [24;1H$GPRMC,033737.000,A,4220.3190,N,07105.5048,W,0.17,113.71,020217,,,D*7A
[23;80H [24;1H$GPGGA,033738.000,4220.3190,N,07105.5048,W,2,07,1.3,21.0,M,-33.8,M,,0000*57
[23;80H [24;1H$GPGSA,M,3,01,28,11,30,17,07,08,,,,,,2.4,1.3,2.0*39
[23;80H [24;1H$GPRMC,033738.000,A,4220.3190,N,07105.5048,W,0.01,113.71,020217,,,D*72
[23;80H [24;1H$GPGGA,033739.000,4220.3186,N,07105.5048,W,2,07,1.3,20.8,M,-33.8,M,,0000*58
[23;80H [24;1H$GPGSA,M,3,01,28,11,30,17,07,08,,,,,,2.4,1.3,2.0*39
[23;80H [24;1H$GPGSV,3,1,12,01,67,103,51,28,62,319,43,11,60,063,47,30,52,224,49*71
[23;80H [24;1H$GPGSV,3,2,12,17,31,261,33,07,27,184,39,08,26,064,38,13,08,288,17*74
[23;80H [24;1H$GPGSV,3,3,12,19,10,253,17,22,17,117,25,51,29,227,41,03,10,134,*7E
[23;80H [24;1H$GPRMC,033739.000,A,4220.3186,N,07105.5048,W,0.14,113.71,020217,,,D*70
[23;80H [24;1H$GPGGA,033740.000,4220.3186,N,07105.5048,W,2,07,1.3,20.8,M,-33.8,M,,0000*56
[23;80H [24;1H$GPGSA,M,3,01,28,11,30,17,07,08,,,,,,2.4,1.3,2.0*39
[23;80H [24;1H$GPRMC,033740.000,A,4220.3186,N,07105.5048,W,0.00,113.71,020217,,,D*7B
[23;80H [24;1H$GPGGA,033741.000,4220.3182,N,07105.5047,W,2,07,1.3,20.6,M,-33.8,M,,0000*52
[23;80H [24;1H$GPGSA,M,3,01,28,11,30,17,07,08,,,,,,2.4,1.3,2.0*39
[23;80H [24;1H$GPRMC,033741.000,A,4220.3182,N,07105.5047,W,0.16,113.71,020217,,,D*76
[23;80H [24;1H$GPGGA,033742.000,4220.3182,N,07105.5047,W,2,07,1.3,20.6,M,-33.8,M,,0000*51
[23;80H [24;1H$GPGSA,M,3,01,28,11,30,17,07,08,,,,,,2.4,1.3,2.0*39
[23;80H [24;1H$GPRMC,033742.000,A,4220.3182,N,07105.5047,W,0.00,113.71,020217,,,D*72
[23;80H [24;1H$GPGGA,033743.000,4220.3178,N,07105.5046,W,2,07,1.3,20.4,M,-33.8,M,,0000*56
[23;80H [24;1H$GPGSA,M,3,01,28,11,30,17,07,08,,,,,,2.4,1.3,2.0*39
[23;80H [24;1H$GPRMC,033743.000,A,4220.3178,N,07105.5046,W,0.15,113.71,020217,,,D*73
[23;80H [24;1H$GPGGA,033744.000,4220.3178,N,07105.5046,W,2,07,1.3,20.4,M,-33.8,M,4.0,0000*7B
[23;80H [24;1H$GPGSA,M,3,01,28,11,30,17,07,08,,,,,,2.4,1.3,2.0*39
[23;80H [24;1H$GPGSV,3,1,12,01,67,102,51,28,62,319,42,11,60,063,47,30,52,224,49*71
[23;80H [24;1H$GPGSV,3,2,12,17,31,261,32,07,27,184,40,08,26,064,38,13,08,288,25*7A
[23;80H [24;1H$GPGSV,3,3,12,19,11,253,25,22,17,117,25,51,29,227,42,03,10,134,*7D
[23;80H [24;1H$GPRMC,033744.000,A,4220.3178,N,07105.5046,W,0.01,113.71,020217,,,D*71
[23;80H [24;1H$GPGGA,033745.000,4220.3175,N,07105.5045,W,2,07,1.3,20.3,M,-33.8,M,,0000*59
[23;80H [24;1H$GPGSA,M,3,01,28,11,30,17,07,08,,,,,,2.4,1.3,2.0*39
[23;80H [24;1H$GPRMC,033745.000,A,4220.3175,N,07105.5045,W,0.13,113.71,020217,,,D*7D
[23;80H [24;1H$GPGGA,033746.000,4220.3175,N,07105.5045,W,2,07,1.3,20.3,M,-33.8,M,,0000*5A
[23;80H [24;1H$GPGSA,M,3,01,28,11,30,17,07,08,,,,,,2.4,1.3,2.0*39
[23;80H [24;1H$GPRMC,033746.000,A,4220.3175,N,07105.5045,W,0.00,113.71,020217,,,D*7C
[23;80H [24;1H$GPGGA,033747.000,4220.3175,N,07105.5045,W,2,07,1.3,20.3,M,-33.8,M,2.0,0000*77
[23;80H [24;1H$GPGSA,M,3,01,28,11,30,17,07,08,,,,,,2.4,1.3,2.0*39
[23;80H [24;1H$GPRMC,033747.000,A,4220.3175,N,07105.5045,W,0.00,113.71,020217,,,D*7D
[23;80H [24;1H$GPGGA,033748.000,4220.3172,N,07105.5044,W,2,07,1.3,20.1,M,-33.8,M,2.0,0000*7C
[23;80H [24;1H$GPGSA,M,3,01,28,11,30,17,07,08,,,,,,2.4,1.3,2.0*39
[23;80H [24;1H$GPRMC,033748.000,A,4220.3172,N,07105.5044,W,0.14,113.71,020217,,,D*71
[23;80H [24;1H$GPGGA,033749.000,4220.3172,N,07105.5044,W,2,07,1.3,20.1,M,-33.8,M,,0000*51
[23;80H [24;1H$GPGSA,M,3,01,28,11,30,17,07,08,,,,,,2.4,1.3,2.0*39
[23;80H [24;1H$GPGSV,3,1,12,01,67,102,51,28,62,319,41,11,60,063,47,30,52,224,49*72
[23;80H [24;1H$GPGSV,3,2,12,17,31,261,32,07,27,184,41,08,26,064,37,19,11,253,24*71
[23;80H [24;1H$GPGSV,3,3,12,22,17,117,22,51,29,227,43,03,10,134,,13,08,288,*78
[23;80H [24;1H$GPRMC,033749.000,A,4220.3172,N,07105.5044,W,0.01,113.71,020217,,,D*74
[23;80H [24;1H$GPGGA,033750.000,4220.3169,N,07105.5042,W,2,07,1.3,19.6,M,-33.8,M,4.0,0000*72
[23;80H [24;1H$GPGSA,M,3,01,28,11,30,17,07,08,,,,,,2.4,1.3,2.0*39
[23;80H [24;1H$GPRMC,033750.000,A,4220.3169,N,07105.5042,W,0.16,113.71,020217,,,D*76
[23;80H [24;1H$GPGGA,033751.000,4220.3169,N,07105.5042,W,2,07,1.3,19.6,M,-33.8,M,,0000*59
[23;80H [24;1H$GPGSA,M,3,01,28,11,30,17,07,08,,,,,,2.4,1.3,2.0*39
[23;80H [24;1H$GPRMC,033751.000,A,4220.3169,N,07105.5042,W,0.01,113.71,020217,,,D*71
[23;80H [24;1H$GPGGA,033752.000,4220.3169,N,07105.5042,W,2,07,1.3,19.6,M,-33.8,M,2.0,0000*76
[23;80H [24;1H$GPGSA,M,3,01,28,11,30,17,07,08,,,,,,2.4,1.3,2.0*39
[23;80H [24;1H$GPRMC,033752.000,A,4220.3169,N,07105.5042,W,0.00,113.71,020217,,,D*73
[23;80H [24;1H$GPGGA,033753.000,4220.3169,N,07105.5042,W,2,07,1.3,19.7,M,-33.8,M,2.0,0000*76
[23;80H [24;1H$GPGSA,M,3,01,28,11,30,17,07,08,,,,,,2.4,1.3,2.0*39
[23;80H [24;1H$GPRMC,033753.000,A,4220.3169,N,07105.5042,W,0.00,113.71,020217,,,D*72
[23;80H [24;1H$GPGGA,033754.000,4220.3168,N,07105.5042,W,2,07,1.3,19.1,M,-33.8,M,3.0,0000*77
[23;80H [24;1H$GPGSA,M,3,01,28,11,30,17,07,08,,,,,,2.4,1.3,2.0*39
[23;80H [24;1H$GPGSV,3,1,12,01,67,102,50,28,62,319,40,11,60,063,47,30,52,224,49*72
[23;80H [24;1H$GPGSV,3,2,12,17,31,261,32,07,27,184,41,08,26,064,37,19,11,253,24*71
[23;80H [24;1H$GPGSV,3,3,12,51,29,227,42,22,17,117,,03,10,134,,13,08,288,*79
[23;80H [24;1H$GPRMC,033754.000,A,4220.3168,N,07105.5042,W,0.15,113.71,020217,,,D*70
[23;80H [24;1H$GPGGA,033755.000,4220.3168,N,07105.5043,W,2,07,1.3,19.2,M,-33.8,M,,0000*59
[23;80H [24;1H$GPGSA,M,3,01,28,11,30,17,07,08,,,,,,2.4,1.3,2.0*39
[23;80H [24;1H$GPRMC,033755.000,A,4220.3168,N,07105.5043,W,0.00,113.71,020217,,,D*74
[23;80H [24;1H$GPGGA,033756.000,4220.3168,N,07105.5043,W,2,07,1.3,19.2,M,-33.8,M,5.0,0000*71
[23;80H [24;1H$GPGSA,M,3,01,28,11,30,17,07,08,,,,,,2.4,1.3,2.0*39
[23;80H [24;1H$GPRMC,033756.000,A,4220.3168,N,07105.5043,W,0.00,113.71,020217,,,D*77
[23;80H [24;1H$GPGGA,033757.000,4220.3167,N,07105.5042,W,2,07,1.3,18.7,M,-33.8,M,,0000*51
[23;80H [24;1H$GPGSA,M,3,01,28,11,30,17,07,08,,,,,,2.4,1.3,2.0*39
[23;80H [24;1H$GPRMC,033757.000,A,4220.3167,N,07105.5042,W,0.14,113.71,020217,,,D*7D
[23;80H [24;1H$GPGGA,033758.000,4220.3167,N,07105.5042,W,2,07,1.3,18.8,M,-33.8,M,,0000*51
[23;80H [24;1H$GPGSA,M,3,01,28,11,30,17,07,08,,,,,,2.4,1.3,2.0*39
[23;80H [24;1H$GPRMC,033758.000,A,4220.3167,N,07105.5042,W,0.00,113.71,020217,,,D*77
[23;80H [24;1H$GPGGA,033759.000,4220.3168,N,07105.5043,W,2,07,1.3,18.8,M,-33.8,M,,0000*5E
[23;80H [24;1H$GPGSA,M,3,01,28,11,30,17,07,08,,,,,,2.4,1.3,2.0*39
[23;80H [24;1H$GPGSV,3,1,12,01,67,102,50,28,62,319,39,11,60,063,47,30,52,224,49*7C
[23;80H [24;1H$GPGSV,3,2,12,17,31,261,32,07,27,184,41,08,26,064,37,19,11,253,24*71
[23;80H [24;1H$GPGSV,3,3,12,22,17,117,25,51,29,227,41,03,10,134,,13,08,288,*7D
[23;80H [24;1H$GPRMC,033759.000,A,4220.3168,N,07105.5043,W,0.00,113.71,020217,,,D*78
[23;80H [24;1H$GPGGA,033800.000,4220.3166,N,07105.5042,W,2,07,1.3,18.4,M,-33.8,M,3.0,0000*73
[23;80H [24;1H$GPGSA,M,3,01,28,11,30,17,07,08,,,,,,2.4,1.3,2.0*39
[23;80H [24;1H$GPRMC,033800.000,A,4220.3166,N,07105.5042,W,0.16,113.71,020217,,,D*73
[23;80H [24;1H$GPGGA,033801.000,4220.3167,N,07105.5042,W,2,07,1.3,18.4,M,-33.8,M,4.0,0000*74
[23;80H [24;1H$GPGSA,M,3,01,28,11,30,17,07,08,,,,,,2.4,1.3,2.0*39
[23;80H [24;1H$GPRMC,033801.000,A,4220.3167,N,07105.5042,W,0.01,113.71,020217,,,D*75
[23;80H [24;1H$GPGGA,033802.000,4220.3165,N,07105.5042,W,2,07,1.3,17.9,M,-33.8,M,,0000*5D
[23;80H [24;1H$GPGSA,M,3,01,28,11,30,17,07,08,,,,,,2.4,1.3,2.0*39
[23;80H [24;1H$GPRMC,033802.000,A,4220.3165,N,07105.5042,W,0.17,113.71,020217,,,D*73
[23;80H [24;1H$GPGGA,033803.000,4220.3165,N,07105.5042,W,2,07,1.3,18.0,M,-33.8,M,,0000*5A
[23;80H [24;1H$GPGSA,M,3,01,28,11,30,17,07,08,,,,,,2.4,1.3,2.0*39
[23;80H [24;1H$GPRMC,033803.000,A,4220.3165,N,07105.5042,W,0.01,113.71,020217,,,D*75
[23;80H [24;1H$GPGGA,033804.000,4220.3164,N,07105.5042,W,2,07,1.3,17.5,M,-33.8,M,,0000*56
[23;80H [24;1H$GPGSA,M,3,01,28,11,30,17,07,08,,,,,,2.4,1.3,2.0*39
[23;80H [24;1H$GPGSV,3,1,12,01,67,102,50,28,62,319,38,11,60,063,48,30,52,224,49*72
[23;80H [24;1H$GPGSV,3,2,12,17,31,261,32,07,27,184,42,08,26,064,36,03,10,134,24*7B
[23;80H [24;1H$GPGSV,3,3,12,19,11,253,25,22,17,117,27,51,29,227,42,13,08,288,*73
[23;80H [24;1H$GPRMC,033804.000,A,4220.3164,N,07105.5042,W,0.15,113.71,020217,,,D*76
[23;80H [24;1H$GPGGA,033805.000,4220.3164,N,07105.5042,W,2,07,1.3,17.5,M,-33.8,M,,0000*57
[23;80H [24;1H$GPGSA,M,3,01,28,11,30,17,07,08,,,,,,2.4,1.3,2.0*39
[23;80H [24;1H$GPRMC,033805.000,A,4220.3164,N,07105.5042,W,0.00,113.71,020217,,,D*73
[23;80H [24;1H$GPGGA,033806.000,4220.3163,N,07105.5042,W,2,07,1.3,17.1,M,-33.8,M,,0000*57
[23;80H [24;1H$GPGSA,M,3,01,28,11,30,17,07,08,,,,,,2.4,1.3,2.0*39
[23;80H [24;1H$GPRMC,033806.000,A,4220.3163,N,07105.5042,W,0.12,113.71,020217,,,D*74
[23;80H [24;1H$GPGGA,033807.000,4220.3163,N,07105.5042,W,2,07,1.3,17.1,M,-33.8,M,4.0,0000*7C
[23;80H [24;1H$GPGSA,M,3,01,28,11,30,17,07,08,,,,,,2.4,1.3,2.0*39
[23;80H [24;1H$GPRMC,033807.000,A,4220.3163,N,07105.5042,W,0.00,113.71,020217,,,D*76
[23;80H [24;1H$GPGGA,033808.000,4220.3162,N,07105.5042,W,2,07,1.3,16.7,M,-33.8,M,,0000*5F
[23;80H [24;1H$GPGSA,M,3,01,28,11,30,17,07,08,,,,,,2.4,1.3,2.0*39
[23;80H [24;1H$GPRMC,033808.000,A,4220.3162,N,07105.5042,W,0.14,113.71,020217,,,D*7D
[23;80H [24;1H$GPGGA,033809.000,4220.3162,N,07105.5042,W,2,07,1.3,16.7,M,-33.8,M,,0000*5E
[23;80H [24;1H$GPGSA,M,3,01,28,11,30,17,07,08,,,,,,2.4,1.3,2.0*39
[23;80H [24;1H$GPGSV,3,1,12,01,67,102,51,28,62,319,37,11,60,063,47,30,52,224,49*73
[23;80H [24;1H$GPGSV,3,2,12,17,31,261,32,07,27,184,42,08,26,064,36,03,10,134,*7D
[23;80H [24;1H$GPGSV,3,3,12,19,11,253,26,22,17,117,28,51,29,227,42,13,08,288,*7F
[23;80H [24;1H$GPRMC,033809.000,A,4220.3162,N,07105.5042,W,0.01,113.71,020217,,,D*78
[23;80H [24;1H$GPGGA,033810.000,4220.3162,N,07105.5042,W,2,07,1.3,16.7,M,-33.8,M,,0000*56
[23;80H [24;1H$GPGSA,M,3,01,28,11,30,17,07,08,,,,,,2.4,1.3,2.0*39
[23;80H [24;1H$GPRMC,033810.000,A,4220.3162,N,07105.5042,W,0.00,113.71,020217,,,D*71
[23;80H [24;1H$GPGGA,033811.000,4220.3163,N,07105.5042,W,2,07,1.3,16.8,M,-33.8,M,,0000*59
[23;80H [24;1H$GPGSA,M,3,01,28,11,30,17,07,08,,,,,,2.4,1.3,2.0*39
[23;80H [24;1H$GPRMC,033811.000,A,4220.3163,N,07105.5042,W,0.00,113.71,020217,,,D*71
[23;80H [24;1H$GPGGA,033812.000,4220.3163,N,07105.5042,W,2,07,1.3,16.8,M,-33.8,M,3.0,0000*77
[23;80H [24;1H$GPGSA,M,3,01,28,11,30,17,07,08,,,,,,2.4,1.3,2.0*39
[23;80H [24;1H$GPRMC,033812.000,A,4220.3163,N,07105.5042,W,0.00,113.71,020217,,,D*72
[23;80H [24;1H$GPGGA,033813.000,4220.3163,N,07105.5042,W,2,07,1.3,16.9,M,-33.8,M,4.0,0000*70
[23;80H [24;1H$GPGSA,M,3,01,28,11,30,17,07,08,,,,,,2.4,1.3,2.0*39
[23;80H [24;1H$GPRMC,033813.000,A,4220.3163,N,07105.5042,W,0.00,113.71,020217,,,D*73
[23;80H [24;1H$GPGGA,033814.000,4220.3164,N,07105.5043,W,2,07,1.3,16.9,M,-33.8,M,5.0,0000*70
[23;80H [24;1H$GPGSA,M,3,01,28,11,30,17,07,08,,,,,,2.4,1.3,2.0*39
[23;80H [24;1H$GPGSV,3,1,12,01,67,102,51,28,62,319,37,11,60,063,48,30,52,224,48*7D
[23;80H [24;1H$GPGSV,3,2,12,17,31,261,26,07,27,184,42,08,26,064,35,19,11,253,26*77
[23;80H [24;1H$GPGSV,3,3,12,22,17,117,29,51,29,227,42,03,10,134,,13,08,288,*72
[23;80H [24;1H$GPRMC,033814.000,A,4220.3164,N,07105.5043,W,0.04,113.71,020217,,,D*76
[23;80H [24;1H$GPGGA,033815.000,4220.3164,N,07105.5044,W,2,07,1.3,17.0,M,-33.8,M,,0000*55
[23;80H [24;1H$GPGSA,M,3,01,28,11,30,17,07,08,,,,,,2.4,1.3,2.0*39
[23;80H [24;1H$GPRMC,033815.000,A,4220.3164,N,07105.5044,W,0.00,113.71,020217,,,D*74
[23;80H [24;1H$GPGGA,033816.000,4220.3164,N,07105.5044,W,2,07,1.3,17.0,M,-33.8,M,,0000*56
[23;80H [24;1H$GPGSA,M,3,01,28,11,30,17,07,08,,,,,,2.4,1.3,2.0*39
[23;80H [24;1H$GPRMC,033816.000,A,4220.3164,N,07105.5044,W,0.00,113.71,020217,,,D*77
[23;80H [24;1H$GPGGA,033817.000,4220.3164,N,07105.5044,W,2,07,1.3,17.1,M,-33.8,M,,0000*56
[23;80H [24;1H$GPGSA,M,3,01,28,11,30,17,07,08,,,,,,2.4,1.3,2.0*39
[23;80H [24;1H$GPRMC,033817.000,A,4220.3164,N,07105.5044,W,0.00,113.71,020217,,,D*76
[23;80H [24;1H$GPGGA,033818.000,4220.3164,N,07105.5044,W,2,07,1.3,17.1,M,-33.8,M,3.0,0000*74
[23;80H [24;1H$GPGSA,M,3,01,28,11,30,17,07,08,,,,,,2.4,1.3,2.0*39
[23;80H [24;1H$GPRMC,033818.000,A,4220.3164,N,07105.5044,W,0.00,113.71,020217,,,D*79
[23;80H [24;1H$GPGGA,033819.000,4220.3164,N,07105.5044,W,2,07,1.3,17.1,M,-33.8,M,,0000*58
[23;80H [24;1H$GPGSA,M,3,01,28,11,30,17,07,08,,,,,,2.4,1.3,2.0*39
[23;80H [24;1H$GPGSV,3,1,12,01,67,102,51,28,62,319,37,11,60,063,48,30,52,224,49*7C
[23;80H [24;1H$GPGSV,3,2,12,17,31,261,32,07,27,184,43,08,26,064,36,03,10,134,31*7E
[23;80H [24;1H$GPGSV,3,3,12,13,08,288,23,19,11,253,27,22,17,117,30,51,29,227,42*76
[23;80H [24;1H$GPRMC,033819.000,A,4220.3164,N,07105.5044,W,0.00,113.71,020217,,,D*78
[23;80H [24;1H$GPGGA,033820.000,4220.3165,N,07105.5045,W,2,07,1.3,17.0,M,-33.8,M,,0000*53
[23;80H [24;1H$GPGSA,M,3,01,28,11,30,17,07,08,,,,,,2.4,1.3,2.0*39
[23;80H [24;1H$GPRMC,033820.000,A,4220.3165,N,07105.5045,W,0.12,113.71,020217,,,D*71
[23;80H [24;1H$GPGGA,033821.000,4220.3165,N,07105.5045,W,2,07,1.3,17.0,M,-33.8,M,,0000*52
[23;80H [24;1H$GPGSA,M,3,01,28,11,30,17,07,08,,,,,,2.4,1.3,2.0*39
[23;80H [24;1H$GPRMC,033821.000,A,4220.3165,N,07105.5045,W,0.00,113.71,020217,,,D*73
[23;80H [24;1H$GPGGA,033822.000,4220.3166,N,07105.5046,W,2,07,1.3,16.9,M,-33.8,M,,0000*59
[23;80H [24;1H$GPGSA,M,3,01,28,11,30,17,07,08,,,,,,2.4,1.3,2.0*39
[23;80H [24;1H$GPRMC,033822.000,A,4220.3166,N,07105.5046,W,0.10,113.71,020217,,,D*71
[23;80H [24;1H$GPGGA,033823.000,4220.3166,N,07105.5046,W,2,07,1.3,17.0,M,-33.8,M,,0000*50
[23;80H [24;1H$GPGSA,M,3,01,28,11,30,17,07,08,,,,,,2.4,1.3,2.0*39
[23;80H [24;1H$GPRMC,033823.000,A,4220.3166,N,07105.5046,W,0.00,113.71,020217,,,D*71
[23;80H [24;1H$GPGGA,033824.000,4220.3165,N,07105.5047,W,2,08,1.2,16.5,M,-33.8,M,,0000*5F
[23;80H [24;1H$GPGSA,M,3,01,28,11,30,17,07,08,22,,,,,2.2,1.2,1.8*35
[23;80H [24;1H$GPGSV,3,1,12,01,67,101,51,28,62,319,38,11,60,063,48,30,52,223,49*77
[23;80H [24;1H$GPGSV,3,2,12,17,31,261,28,07,27,184,43,08,26,065,36,22,17,117,31*71
[23;80H [24;1H$GPGSV,3,3,12,13,07,288,24,19,11,254,28,51,29,227,41,03,10,134,*73
[23;80H [24;1H$GPRMC,033824.000,A,4220.3165,N,07105.5047,W,0.03,113.71,020217,,,D*77
[23;80H [24;1H$GPGGA,033825.000,4220.3165,N,07105.5047,W,2,08,1.2,16.6,M,-33.8,M,3.0,0000*70
[23;80H [24;1H$GPGSA,M,3,01,28,11,30,17,07,08,22,,,,,2.2,1.2,1.8*35
[23;80H [24;1H$GPRMC,033825.000,A,4220.3165,N,07105.5047,W,0.00,113.71,020217,,,D*75
[23;80H [24;1H$GPGGA,033826.000,4220.3165,N,07105.5047,W,2,08,1.2,16.1,M,-33.8,M,,0000*59
[23;80H [24;1H$GPGSA,M,3,01,28,11,30,17,07,08,22,,,,,2.2,1.2,1.8*35
[23;80H [24;1H$GPRMC,033826.000,A,4220.3165,N,07105.5047,W,0.05,113.71,020217,,,D*73
[23;80H [24;1H$GPGGA,033827.000,4220.3165,N,07105.5047,W,2,08,1.2,16.2,M,-33.8,M,,0000*5B
[23;80H [24;1H$GPGSA,M,3,01,28,11,30,17,07,08,22,,,,,2.2,1.2,1.8*35
[23;80H [24;1H$GPRMC,033827.000,A,4220.3165,N,07105.5047,W,0.00,113.71,020217,,,D*77
[23;80H [24;1H$GPGGA,033828.000,4220.3164,N,07105.5048,W,2,08,1.2,15.8,M,-33.8,M,2.0,0000*7F
[23;80H [24;1H$GPGSA,M,3,01,28,11,30,17,07,08,22,,,,,2.2,1.2,1.8*35
[23;80H [24;1H$GPRMC,033828.000,A,4220.3164,N,07105.5048,W,0.05,113.71,020217,,,D*73
[23;80H [24;1H$GPGGA,033829.000,4220.3164,N,07105.5048,W,2,08,1.2,15.8,M,-33.8,M,2.0,0000*7E
[23;80H [24;1H$GPGSA,M,3,01,28,11,30,17,07,08,22,,,,,2.2,1.2,1.8*35
[23;80H [24;1H$GPGSV,3,1,12,01,67,101,51,28,62,319,39,11,60,063,48,30,52,223,49*76
[23;80H [24;1H$GPGSV,3,2,12,17,31,261,30,07,27,184,43,08,26,065,36,22,17,117,32*7B
[23;80H [24;1H$GPGSV,3,3,12,13,07,288,04,19,11,254,29,51,29,227,42,03,10,134,*73
[23;80H [24;1H$GPRMC,033829.000,A,4220.3164,N,07105.5048,W,0.00,113.71,020217,,,D*77
[23;80H [24;1H$GPGGA,033830.000,4220.3164,N,07105.5048,W,2,09,1.1,15.9,M,-33.8,M,2.0,0000*75
[23;80H [24;1H$GPGSA,M,3,01,28,11,30,17,07,08,22,19,,,,1.8,1.1,1.4*3B
[23;80H [24;1H$GPRMC,033830.000,A,4220.3164,N,07105.5048,W,0.00,113.71,020217,,,D*7F
[23;80H [24;1H$GPGGA,033831.000,4220.3163,N,07105.5049,W,2,09,1.1,15.5,M,-33.8,M,3.0,0000*7F
[23;80H [24;1H$GPGSA,M,3,01,28,11,30,17,07,08,22,19,,,,1.8,1.1,1.4*3B
[23;80H [24;1H$GPRMC,033831.000,A,4220.3163,N,07105.5049,W,0.08,113.71,020217,,,D*70
[23;80H [24;1H$GPGGA,033832.000,4220.3162,N,07105.5049,W,2,09,1.1,15.1,M,-33.8,M,4.0,0000*7E
[23;80H [24;1H$GPGSA,M,3,01,28,11,30,17,07,08,22,19,,,,1.8,1.1,1.4*3B
[23;80H [24;1H$GPRMC,033832.000,A,4220.3162,N,07105.5049,W,0.07,113.71,020217,,,D*7D
[23;80H [24;1H$GPGGA,033833.000,4220.3162,N,07105.5049,W,2,09,1.1,15.1,M,-33.8,M,,0000*55
[23;80H [24;1H$GPGSA,M,3,01,28,11,30,17,07,08,22,19,,,,1.8,1.1,1.4*3B
[23;80H [24;1H$GPRMC,033833.000,A,4220.3162,N,07105.5049,W,0.00,113.71,020217,,,D*7B
[23;80H [24;1H$GPGGA,033834.000,4220.3162,N,07105.5049,W,2,09,1.1,15.2,M,-33.8,M,,0000*51
[23;80H [24;1H$GPGSA,M,3,01,28,11,30,17,07,08,22,19,,,,1.8,1.1,1.4*3B
[23;80H [24;1H$GPGSV,3,1,12,01,67,101,51,28,62,319,40,11,60,062,48,30,52,223,48*78
[23;80H [24;1H$GPGSV,3,2,12,17,31,261,23,07,27,184,43,08,26,065,36,22,17,117,31*7A
[23;80H [24;1H$GPGSV,3,3,12,19,11,254,28,13,07,288,18,51,29,227,42,03,10,134,*7F
[23;80H [24;1H$GPRMC,033834.000,A,4220.3162,N,07105.5049,W,0.00,113.71,020217,,,D*7C
[23;80H [24;1H$GPGGA,033835.000,4220.3162,N,07105.5049,W,2,09,1.1,15.2,M,-33.8,M,2.0,0000*7C
[23;80H [24;1H$GPGSA,M,3,01,28,11,30,17,07,08,22,19,,,,1.8,1.1,1.4*3B
[23;80H [24;1H$GPRMC,033835.000,A,4220.3162,N,07105.5049,W,0.00,113.71,020217,,,D*7D
[23;80H [24;1H$GPGGA,033836.000,4220.3161,N,07105.5050,W,2,09,1.1,14.9,M,-33.8,M,,0000*52
[23;80H [24;1H$GPGSA,M,3,01,28,11,30,17,07,08,22,19,,,,1.8,1.1,1.4*3B
[23;80H [24;1H$GPRMC,033836.000,A,4220.3161,N,07105.5050,W,0.06,113.71,020217,,,D*73
[23;80H [24;1H$GPGGA,033837.000,4220.3162,N,07105.5050,W,2,09,1.1,14.9,M,-33.8,M,4.0,0000*7A
[23;80H [24;1H$GPGSA,M,3,01,28,11,30,17,07,08,22,19,,,,1.8,1.1,1.4*3B
[23;80H [24;1H$GPRMC,033837.000,A,4220.3162,N,07105.5050,W,0.00,113.71,020217,,,D*77
[23;80H [24;1H$GPGGA,033838.000,4220.3161,N,07105.5050,W,2,08,1.1,14.6,M,-33.8,M,2.0,0000*7E
[23;80H [24;1H$GPGSA,M,3,01,28,11,30,07,08,22,19,,,,,1.8,1.1,1.4*3D
[23;80H [24;1H$GPRMC,033838.000,A,4220.3161,N,07105.5050,W,0.12,113.71,020217,,,D*78
[23;80H [24;1H$GPGGA,033839.000,4220.3161,N,07105.5050,W,2,09,1.1,14.7,M,-33.8,M,2.0,0000*7F
[23;80H [24;1H$GPGSA,M,3,01,28,11,30,17,07,08,22,19,,,,1.8,1.1,1.4*3B
[23;80H [24;1H$GPGSV,3,1,12,01,67,101,51,28,62,319,40,11,60,062,48,30,52,223,48*78
[23;80H [24;1H$GPGSV,3,2,12,17,31,262,22,07,27,184,43,08,26,065,36,22,18,117,30*76
[23;80H [24;1H$GPGSV,3,3,12,19,11,254,28,13,07,288,26,51,29,227,41,03,10,134,*71
[23;80H [24;1H$GPRMC,033839.000,A,4220.3161,N,07105.5050,W,0.00,113.71,020217,,,D*7A
[23;80H [24;1H$GPGGA,033840.000,4220.3161,N,07105.5050,W,2,09,1.1,14.7,M,-33.8,M,,0000*5D
[23;80H [24;1H$GPGSA,M,3,01,28,11,30,17,07,08,22,19,,,,1.8,1.1,1.4*3B
[23;80H [24;1H$GPRMC,033840.000,A,4220.3161,N,07105.5050,W,0.00,113.71,020217,,,D*74
[23;80H [24;1H$GPGGA,033841.000,4220.3161,N,07105.5050,W,2,08,1.2,14.7,M,-33.8,M,,0000*5E
[23;80H [24;1H$GPGSA,M,3,01,28,11,30,17,07,08,19,,,,,2.0,1.2,1.6*31
[23;80H [24;1H$GPRMC,033841.000,A,4220.3161,N,07105.5050,W,0.00,113.71,020217,,,D*75
[23;80H [24;1H$GPGGA,033842.000,4220.3161,N,07105.5050,W,2,09,1.1,14.8,M,-33.8,M,3.0,0000*7D
[23;80H [24;1H$GPGSA,M,3,01,28,11,30,17,07,08,22,19,,,,1.8,1.1,1.4*3B
[23;80H [24;1H$GPRMC,033842.000,A,4220.3161,N,07105.5050,W,0.00,113.71,020217,,,D*76
[23;80H [24;1H$GPGGA,033843.000,4220.3161,N,07105.5050,W,2,09,1.1,14.8,M,-33.8,M,4.0,0000*7B
[23;80H [24;1H$GPGSA,M,3,01,28,11,30,17,07,08,22,19,,,,1.8,1.1,1.4*3B
[23;80H [24;1H$GPRMC,033843.000,A,4220.3161,N,07105.5050,W,0.00,113.71,020217,,,D*77
[23;80H [24;1H$GPGGA,033844.000,4220.3162,N,07105.5050,W,2,09,1.1,14.8,M,-33.8,M,5.0,0000*7E
[23;80H [24;1H$GPGSA,M,3,01,28,11,30,17,07,08,22,19,,,,1.8,1.1,1.4*3B
[23;80H [24;1H$GPGSV,3,1,12,01,67,101,51,28,62,319,41,11,59,062,48,30,52,223,48*73
[23;80H [24;1H$GPGSV,3,2,12,17,31,262,32,07,27,184,43,08,26,065,36,22,18,116,28*7F
[23;80H [24;1H$GPGSV,3,3,12,19,11,254,29,03,10,134,18,13,07,288,17,51,29,227,42*78
[23;80H [24;1H$GPRMC,033844.000,A,4220.3162,N,07105.5050,W,0.00,113.71,020217,,,D*73
[23;80H [24;1H$GPGGA,033845.000,4220.3162,N,07105.5050,W,2,09,1.1,14.9,M,-33.8,M,,0000*55
[23;80H [24;1H$GPGSA,M,3,01,28,11,30,17,07,08,22,19,,,,1.8,1.1,1.4*3B
[23;80H [24;1H$GPRMC,033845.000,A,4220.3162,N,07105.5050,W,0.00,113.71,020217,,,D*72
[23;80H [24;1H$GPGGA,033846.000,4220.3162,N,07105.5050,W,2,09,1.1,14.9,M,-33.8,M,,0000*56
[23;80H [24;1H$GPGSA,M,3,01,28,11,30,17,07,08,22,19,,,,1.8,1.1,1.4*3B
[23;80H [24;1H$GPRMC,033846.000,A,4220.3162,N,07105.5050,W,0.00,113.71,020217,,,D*71
[23;80H [24;1H$GPGGA,033847.000,4220.3162,N,07105.5051,W,2,09,1.1,14.9,M,-33.8,M,,0000*56
[23;80H [24;1H$GPGSA,M,3,01,28,11,30,17,07,08,22,19,,,,1.8,1.1,1.4*3B
[23;80H [24;1H$GPRMC,033847.000,A,4220.3162,N,07105.5051,W,0.00,113.71,020217,,,D*71
[23;80H [24;1H$GPGGA,033848.000,4220.3162,N,07105.5051,W,2,09,1.1,15.0,M,-33.8,M,2.0,0000*7D
[23;80H [24;1H$GPGSA,M,3,01,28,11,30,17,07,08,22,19,,,,1.8,1.1,1.4*3B
[23;80H [24;1H$GPRMC,033848.000,A,4220.3162,N,07105.5051,W,0.00,113.71,020217,,,D*7E
[23;80H [24;1H$GPGGA,033849.000,4220.3162,N,07105.5051,W,2,09,1.1,15.0,M,-33.8,M,3.0,0000*7D
[23;80H [24;1H$GPGSA,M,3,01,28,11,30,17,07,08,22,19,,,,1.8,1.1,1.4*3B
[23;80H [24;1H$GPGSV,3,1,12,01,67,101,51,28,62,319,41,11,59,062,48,30,52,223,48*73
[23;80H [24;1H$GPGSV,3,2,12,17,31,262,32,07,27,184,43,08,26,065,36,22,18,116,28*7F
[23;80H [24;1H$GPGSV,3,3,12,19,11,254,28,13,07,288,23,51,29,227,41,03,10,134,*74
[23;80H [24;1H$GPRMC,033849.000,A,4220.3162,N,07105.5051,W,0.00,113.71,020217,,,D*7F
[23;80H [24;1H$GPGGA,033850.000,4220.3163,N,07105.5051,W,2,09,1.1,15.0,M,-33.8,M,2.0,0000*75
[23;80H [24;1H$GPGSA,M,3,01,28,11,30,17,07,08,22,19,,,,1.8,1.1,1.4*3B
[23;80H [24;1H$GPRMC,033850.000,A,4220.3163,N,07105.5051,W,0.00,113.71,020217,,,D*76
[23;80H [24;1H$GPGGA,033851.000,4220.3163,N,07105.5051,W,2,09,1.1,15.1,M,-33.8,M,,0000*59
[23;80H [24;1H$GPGSA,M,3,01,28,11,30,17,07,08,22,19,,,,1.8,1.1,1.4*3B
[23;80H [24;1H$GPRMC,033851.000,A,4220.3163,N,07105.5051,W,0.00,113.71,020217,,,D*77
[23;80H [24;1H$GPGGA,033852.000,4220.3163,N,07105.5051,W,2,09,1.1,15.1,M,-33.8,M,,0000*5A
[23;80H [24;1H$GPGSA,M,3,01,28,11,30,17,07,08,22,19,,,,1.8,1.1,1.4*3B
[23;80H [24;1H$GPRMC,033852.000,A,4220.3163,N,07105.5051,W,0.00,113.71,020217,,,D*74
[23;80H [24;1H$GPGGA,033853.000,4220.3163,N,07105.5051,W,2,09,1.1,15.1,M,-33.8,M,2.0,0000*77
[23;80H [24;1H$GPGSA,M,3,01,28,11,30,17,07,08,22,19,,,,1.8,1.1,1.4*3B
[23;80H [24;1H$GPRMC,033853.000,A,4220.3163,N,07105.5051,W,0.00,113.71,020217,,,D*75
[23;80H [24;1H$GPGGA,033854.000,4220.3163,N,07105.5051,W,2,09,1.1,15.2,M,-33.8,M,3.0,0000*72
[23;80H [24;1H$GPGSA,M,3,01,28,11,30,17,07,08,22,19,,,,1.8,1.1,1.4*3B
[23;80H [24;1H$GPGSV,3,1,12,01,67,101,51,28,62,319,41,11,59,062,48,30,52,223,47*7C
[23;80H [24;1H$GPGSV,3,2,12,17,31,262,32,07,27,184,42,08,26,065,35,22,18,116,29*7C
[23;80H [24;1H$GPGSV,3,3,12,19,11,254,27,51,29,227,41,03,10,134,,13,07,288,*7A
[23;80H [24;1H$GPRMC,033854.000,A,4220.3163,N,07105.5051,W,0.00,113.71,020217,,,D*72
[23;80H [24;1H$GPGGA,033855.000,4220.3163,N,07105.5051,W,2,09,1.1,15.2,M,-33.8,M,,0000*5E
[23;80H [24;1H$GPGSA,M,3,01,28,11,30,17,07,08,22,19,,,,1.8,1.1,1.4*3B
[23;80H [24;1H$GPRMC,033855.000,A,4220.3163,N,07105.5051,W,0.00,113.71,020217,,,D*73
[23;80H [24;1H$GPGGA,033856.000,4220.3164,N,07105.5051,W,2,09,1.1,15.3,M,-33.8,M,3.0,0000*76
[23;80H [24;1H$GPGSA,M,3,01,28,11,30,17,07,08,22,19,,,,1.8,1.1,1.4*3B
[23;80H [24;1H$GPRMC,033856.000,A,4220.3164,N,07105.5051,W,0.00,113.71,020217,,,D*77
[23;80H [24;1H$GPGGA,033857.000,4220.3164,N,07105.5051,W,2,09,1.1,15.3,M,-33.8,M,,0000*5A
[23;80H [24;1H$GPGSA,M,3,01,28,11,30,17,07,08,22,19,,,,1.8,1.1,1.4*3B
[23;80H [24;1H$GPRMC,033857.000,A,4220.3164,N,07105.5051,W,0.00,113.71,020217,,,D*76
[23;80H [24;1H$GPGGA,033858.000,4220.3164,N,07105.5052,W,2,09,1.1,15.3,M,-33.8,M,2.0,0000*7A
[23;80H [24;1H$GPGSA,M,3,01,28,11,30,17,07,08,22,19,,,,1.8,1.1,1.4*3B
[23;80H [24;1H$GPRMC,033858.000,A,4220.3164,N,07105.5052,W,0.00,113.71,020217,,,D*7A
[23;80H [24;1H$GPGGA,033859.000,4220.3164,N,07105.5052,W,2,09,1.1,15.4,M,-33.8,M,2.0,0000*7C
[23;80H [24;1H$GPGSA,M,3,01,28,11,30,17,07,08,22,19,,,,1.8,1.1,1.4*3B
[23;80H [24;1H$GPGSV,3,1,12,01,67,101,51,28,62,319,41,11,59,062,48,30,52,223,47*7C
[23;80H [24;1H$GPGSV,3,2,12,17,31,262,32,07,27,184,42,08,26,065,35,22,18,116,29*7C
[23;80H [24;1H$GPGSV,3,3,12,19,11,254,27,13,07,288,20,51,29,227,41,03,10,134,*78
[23;80H [24;1H$GPRMC,033859.000,A,4220.3164,N,07105.5052,W,0.00,113.71,020217,,,D*7B
[23;80H [24;1H$GPGGA,033900.000,4220.3164,N,07105.5052,W,2,09,1.1,15.4,M,-33.8,M,3.0,0000*70
[23;80H [24;1H$GPGSA,M,3,01,28,11,30,17,07,08,22,19,,,,1.8,1.1,1.4*3B
[23;80H [24;1H$GPRMC,033900.000,A,4220.3164,N,07105.5052,W,0.00,113.71,020217,,,D*76
[23;80H [24;1H$GPGGA,033901.000,4220.3164,N,07105.5052,W,2,09,1.1,15.5,M,-33.8,M,4.0,0000*77
[23;80H [24;1H$GPGSA,M,3,01,28,11,30,17,07,08,22,19,,,,1.8,1.1,1.4*3B
[23;80H [24;1H$GPRMC,033901.000,A,4220.3164,N,07105.5052,W,0.00,113.71,020217,,,D*77
[23;80H [24;1H$GPGGA,033902.000,4220.3162,N,07105.5051,W,2,09,1.1,15.2,M,-33.8,M,,0000*5C
[23;80H [24;1H$GPGSA,M,3,01,28,11,30,17,07,08,22,19,,,,1.8,1.1,1.4*3B
[23;80H [24;1H$GPRMC,033902.000,A,4220.3162,N,07105.5051,W,0.13,113.71,020217,,,D*73
[23;80H [24;1H$GPGGA,033903.000,4220.3162,N,07105.5051,W,2,09,1.1,15.3,M,-33.8,M,,0000*5C
[23;80H [24;1H$GPGSA,M,3,01,28,11,30,17,07,08,22,19,,,,1.8,1.1,1.4*3B
[23;80H [24;1H$GPRMC,033903.000,A,4220.3162,N,07105.5051,W,0.00,113.71,020217,,,D*70
[23;80H [24;1H$GPGGA,033904.000,4220.3162,N,07105.5052,W,2,09,1.1,15.3,M,-33.8,M,,0000*58
[23;80H [24;1H$GPGSA,M,3,01,28,11,30,17,07,08,22,19,,,,1.8,1.1,1.4*3B
[23;80H [24;1H$GPGSV,3,1,12,01,67,101,50,28,62,319,42,11,59,062,48,30,52,223,47*7E
[23;80H [24;1H$GPGSV,3,2,12,17,31,262,33,07,27,184,42,08,26,065,36,22,18,116,29*7E
[23;80H [24;1H$GPGSV,3,3,12,19,11,254,26,13,07,288,30,51,29,227,41,03,10,134,*78
[23;80H [24;1H$GPRMC,033904.000,A,4220.3162,N,07105.5052,W,0.00,113.71,020217,,,D*74
[23;80H [24;1H$GPGGA,033905.000,4220.3162,N,07105.5052,W,2,09,1.1,15.3,M,-33.8,M,,0000*59
[23;80H [24;1H$GPGSA,M,3,01,28,11,30,17,07,08,22,19,,,,1.8,1.1,1.4*3B
[23;80H [24;1H$GPRMC,033905.000,A,4220.3162,N,07105.5052,W,0.00,113.71,020217,,,D*75
[23;80H [24;1H$GPGGA,033906.000,4220.3163,N,07105.5052,W,2,09,1.1,15.4,M,-33.8,M,,0000*5C
[23;80H [24;1H$GPGSA,M,3,01,28,11,30,17,07,08,22,19,,,,1.8,1.1,1.4*3B
[23;80H [24;1H$GPRMC,033906.000,A,4220.3163,N,07105.5052,W,0.00,113.71,020217,,,D*77
[23;80H [24;1H$GPGGA,033907.000,4220.3163,N,07105.5052,W,2,09,1.1,15.4,M,-33.8,M,3.0,0000*70
[23;80H [24;1H$GPGSA,M,3,01,28,11,30,17,07,08,22,19,,,,1.8,1.1,1.4*3B
[23;80H [24;1H$GPRMC,033907.000,A,4220.3163,N,07105.5052,W,0.00,113.71,020217,,,D*76
[23;80H [24;1H$GPGGA,033908.000,4220.3163,N,07105.5052,W,2,09,1.1,15.5,M,-33.8,M,4.0,0000*79
[23;80H [24;1H$GPGSA,M,3,01,28,11,30,17,07,08,22,19,,,,1.8,1.1,1.4*3B
[23;80H [24;1H$GPRMC,033908.000,A,4220.3163,N,07105.5052,W,0.00,113.71,020217,,,D*79
[23;80H [24;1H$GPGGA,033909.000,4220.3163,N,07105.5052,W,2,09,1.1,15.5,M,-33.8,M,,0000*52
[23;80H [24;1H$GPGSA,M,3,01,28,11,30,17,07,08,22,19,,,,1.8,1.1,1.4*3B
[23;80H [24;1H$GPGSV,3,1,12,01,67,100,50,28,62,319,42,11,59,062,49,30,51,223,47*7D
[23;80H [24;1H$GPGSV,3,2,12,17,31,262,34,07,26,184,41,08,26,065,36,22,18,116,30*73
[23;80H [24;1H$GPGSV,3,3,12,19,11,254,26,13,07,288,30,51,29,227,40,03,10,134,*79
[23;80H [24;1H$GPRMC,033909.000,A,4220.3163,N,07105.5052,W,0.00,113.71,020217,,,D*78
[23;80H [24;1H$GPGGA,033910.000,4220.3163,N,07105.5052,W,2,09,1.1,15.5,M,-33.8,M,,0000*5A
[23;80H [24;1H$GPGSA,M,3,01,28,11,30,17,07,08,22,19,,,,1.8,1.1,1.4*3B
[23;80H [24;1H$GPRMC,033910.000,A,4220.3163,N,07105.5052,W,0.00,113.71,020217,,,D*70
[23;80H [24;1H$GPGGA,033911.000,4220.3164,N,07105.5052,W,2,09,1.1,15.6,M,-33.8,M,,0000*5F
[23;80H [24;1H$GPGSA,M,3,01,28,11,30,17,07,08,22,19,,,,1.8,1.1,1.4*3B
[23;80H [24;1H$GPRMC,033911.000,A,4220.3164,N,07105.5052,W,0.00,113.71,020217,,,D*76
[23;80H [24;1H$GPGGA,033912.000,4220.3164,N,07105.5052,W,2,09,1.1,15.6,M,-33.8,M,3.0,0000*71
[23;80H [24;1H$GPGSA,M,3,01,28,11,30,17,07,08,22,19,,,,1.8,1.1,1.4*3B
[23;80H [24;1H$GPRMC,033912.000,A,4220.3164,N,07105.5052,W,0.00,113.71,020217,,,D*75
[23;80H [24;1H$GPGGA,033913.000,4220.3164,N,07105.5052,W,2,09,1.1,15.7,M,-33.8,M,4.0,0000*76
[23;80H [24;1H$GPGSA,M,3,01,28,11,30,17,07,08,22,19,,,,1.8,1.1,1.4*3B
[23;80H [24;1H$GPRMC,033913.000,A,4220.3164,N,07105.5052,W,0.00,113.71,020217,,,D*74
[23;80H [24;1H$GPGGA,033914.000,4220.3164,N,07105.5053,W,2,09,1.1,15.7,M,-33.8,M,5.0,0000*71
[23;80H [24;1H$GPGSA,M,3,01,28,11,30,17,07,08,22,19,,,,1.8,1.1,1.4*3B
[23;80H [24;1H$GPGSV,3,1,12,01,67,100,50,28,63,319,42,11,59,062,48,30,51,223,48*72
[23;80H [24;1H$GPGSV,3,2,12,17,31,262,35,07,26,184,41,08,26,065,36,22,18,116,30*72
[23;80H [24;1H$GPGSV,3,3,12,19,11,254,27,13,07,288,23,51,29,227,41,03,10,134,*7B
[23;80H [24;1H$GPRMC,033914.000,A,4220.3164,N,07105.5053,W,0.00,113.71,020217,,,D*72
[23;80H [24;1H$GPGGA,033915.000,4220.3164,N,07105.5053,W,2,09,1.1,15.7,M,-33.8,M,,0000*5B
[23;80H [24;1H$GPGSA,M,3,01,28,11,30,17,07,08,22,19,,,,1.8,1.1,1.4*3B
[23;80H [24;1H$GPRMC,033915.000,A,4220.3164,N,07105.5053,W,0.00,113.71,020217,,,D*73
[23;80H [24;1H$GPGGA,033916.000,4220.3164,N,07105.5053,W,2,09,1.1,15.7,M,-33.8,M,,0000*58
[23;80H [24;1H$GPGSA,M,3,01,28,11,30,17,07,08,22,19,,,,1.8,1.1,1.4*3B
[23;80H [24;1H$GPRMC,033916.000,A,4220.3164,N,07105.5053,W,0.00,113.71,020217,,,D*70
[23;80H [24;1H$GPGGA,033917.000,4220.3164,N,07105.5053,W,2,09,1.1,15.7,M,-33.8,M,,0000*59
[23;80H [24;1H$GPGSA,M,3,01,28,11,30,17,07,08,22,19,,,,1.8,1.1,1.4*3B
[23;80H [24;1H$GPRMC,033917.000,A,4220.3164,N,07105.5053,W,0.00,113.71,020217,,,D*71
[23;80H [24;1H$GPGGA,033918.000,4220.3164,N,07105.5053,W,2,09,1.1,15.8,M,-33.8,M,2.0,0000*75
[23;80H [24;1H$GPGSA,M,3,01,28,11,30,17,07,08,22,19,,,,1.8,1.1,1.4*3B
[23;80H [24;1H$GPRMC,033918.000,A,4220.3164,N,07105.5053,W,0.00,113.71,020217,,,D*7E
[23;80H [24;1H$GPGGA,033919.000,4220.3164,N,07105.5053,W,2,09,1.1,15.8,M,-33.8,M,2.0,0000*74
[23;80H [24;1H$GPGSA,M,3,01,28,11,30,17,07,08,22,19,,,,1.8,1.1,1.4*3B
[23;80H [24;1H$GPGSV,3,1,12,01,67,100,50,28,63,319,42,11,59,062,48,30,51,223,49*73
[23;80H [24;1H$GPGSV,3,2,12,17,31,262,35,07,26,184,40,08,26,065,36,22,18,116,30*73
[23;80H [24;1H$GPGSV,3,3,12,19,11,254,24,51,29,227,40,03,10,134,,13,07,288,*78
[23;80H [24;1H$GPRMC,033919.000,A,4220.3164,N,07105.5053,W,0.00,113.71,020217,,,D*7F
[23;80H [24;1H$GPGGA,033920.000,4220.3164,N,07105.5053,W,2,09,1.1,15.8,M,-33.8,M,3.0,0000*7F
[23;80H [24;1H$GPGSA,M,3,01,28,11,30,17,07,08,22,19,,,,1.8,1.1,1.4*3B
[23;80H [24;1H$GPRMC,033920.000,A,4220.3164,N,07105.5053,W,0.00,113.71,020217,,,D*75
[23;80H [24;1H$GPGGA,033921.000,4220.3164,N,07105.5053,W,2,09,1.1,15.8,M,-33.8,M,,0000*53
[23;80H [24;1H$GPGSA,M,3,01,28,11,30,17,07,08,22,19,,,,1.8,1.1,1.4*3B
[23;80H [24;1H$GPRMC,033921.000,A,4220.3164,N,07105.5053,W,0.00,113.71,020217,,,D*74
[23;80H [24;1H$GPGGA,033922.000,4220.3162,N,07105.5052,W,2,09,1.1,15.6,M,-33.8,M,,0000*59
[23;80H [24;1H$GPGSA,M,3,01,28,11,30,17,07,08,22,19,,,,1.8,1.1,1.4*3B
[23;80H [24;1H$GPRMC,033922.000,A,4220.3162,N,07105.5052,W,0.13,113.71,020217,,,D*72
[23;80H [24;1H$GPGGA,033923.000,4220.3162,N,07105.5052,W,2,09,1.1,15.6,M,-33.8,M,,0000*58
[23;80H [24;1H$GPGSA,M,3,01,28,11,30,17,07,08,22,19,,,,1.8,1.1,1.4*3B
[23;80H [24;1H$GPRMC,033923.000,A,4220.3162,N,07105.5052,W,0.00,113.71,020217,,,D*71
[23;80H [24;1H$GPGGA,033924.000,4220.3162,N,07105.5052,W,2,09,1.1,15.6,M,-33.8,M,3.0,0000*72
[23;80H [24;1H$GPGSA,M,3,01,28,11,30,17,07,08,22,19,,,,1.8,1.1,1.4*3B
[23;80H [24;1H$GPGSV,3,1,12,01,67,100,50,28,63,319,42,11,59,062,48,30,51,223,49*73
[23;80H [24;1H$GPGSV,3,2,12,17,31,262,35,07,26,184,39,08,26,065,37,22,18,116,31*7D
[23;80H [24;1H$GPGSV,3,3,12,19,11,254,23,03,10,134,23,51,29,227,41,13,07,288,*7F
[23;80H [24;1H$GPRMC,033924.000,A,4220.3162,N,07105.5052,W,0.00,113.71,020217,,,D*76
[23;80H [24;1H$GPGGA,033925.000,4220.3162,N,07105.5052,W,2,09,1.1,15.6,M,-33.8,M,4.0,0000*74
[23;80H [24;1H$GPGSA,M,3,01,28,11,30,17,07,08,22,19,,,,1.8,1.1,1.4*3B
[23;80H [24;1H$GPRMC,033925.000,A,4220.3162,N,07105.5052,W,0.00,113.71,020217,,,D*77
[23;80H [24;1H$GPGGA,033926.000,4220.3162,N,07105.5052,W,2,09,1.1,15.6,M,-33.8,M,5.0,0000*76
[23;80H [24;1H$GPGSA,M,3,01,28,11,30,17,07,08,22,19,,,,1.8,1.1,1.4*3B
[23;80H [24;1H$GPRMC,033926.000,A,4220.3162,N,07105.5052,W,0.00,113.71,020217,,,D*74
[23;80H [24;1H$GPGGA,033927.000,4220.3162,N,07105.5052,W,2,09,1.1,15.7,M,-33.8,M,,0000*5D
[23;80H [24;1H$GPGSA,M,3,01,28,11,30,17,07,08,22,19,,,,1.8,1.1,1.4*3B
[23;80H [24;1H$GPRMC,033927.000,A,4220.3162,N,07105.5052,W,0.00,113.71,020217,,,D*75
[23;80H [24;1H$GPGGA,033928.000,4220.3162,N,07105.5052,W,2,09,1.1,15.7,M,-33.8,M,,0000*52
[23;80H [24;1H$GPGSA,M,3,01,28,11,30,17,07,08,22,19,,,,1.8,1.1,1.4*3B
[23;80H [24;1H$GPRMC,033928.000,A,4220.3162,N,07105.5052,W,0.00,113.71,020217,,,D*7A
[23;80H [24;1H$GPGGA,033929.000,4220.3162,N,07105.5052,W,2,09,1.1,15.7,M,-33.8,M,,0000*53
[23;80H [24;1H$GPGSA,M,3,01,28,11,30,17,07,08,22,19,,,,1.8,1.1,1.4*3B
[23;80H [24;1H$GPGSV,3,1,12,01,67,100,50,28,63,319,42,11,59,062,47,30,51,223,49*7C
[23;80H [24;1H$GPGSV,3,2,12,17,31,262,35,07,26,184,36,08,26,065,38,22,18,116,31*7D
[23;80H [24;1H$GPGSV,3,3,12,19,11,254,22,03,10,134,23,13,07,288,28,51,29,227,41*74
[23;80H [24;1H$GPRMC,033929.000,A,4220.3162,N,07105.5052,W,0.00,113.71,020217,,,D*7B
[23;80H [24;1H$GPGGA,033930.000,4220.3162,N,07105.5052,W,2,09,1.1,15.7,M,-33.8,M,3.0,0000*76
[23;80H [24;1H$GPGSA,M,3,01,28,11,30,17,07,08,22,19,,,,1.8,1.1,1.4*3B
[23;80H [24;1H$GPRMC,033930.000,A,4220.3162,N,07105.5052,W,0.00,113.71,020217,,,D*73
[23;80H [24;1H$GPGGA,033931.000,4220.3162,N,07105.5052,W,2,09,1.1,15.7,M,-33.8,M,4.0,0000*70
[23;80H [24;1H$GPGSA,M,3,01,28,11,30,17,07,08,22,19,,,,1.8,1.1,1.4*3B
[23;80H [24;1H$GPRMC,033931.000,A,4220.3162,N,07105.5052,W,0.00,113.71,020217,,,D*72
[23;80H [24;1H$GPGGA,033932.000,4220.3160,N,07105.5051,W,2,09,1.1,15.6,M,-33.8,M,5.0,0000*72
[23;80H [24;1H$GPGSA,M,3,01,28,11,30,17,07,08,22,19,,,,1.8,1.1,1.4*3B
[23;80H [24;1H$GPRMC,033932.000,A,4220.3160,N,07105.5051,W,0.06,113.71,020217,,,D*76
[23;80H [24;1H$GPGGA,033933.000,4220.3160,N,07105.5051,W,2,09,1.1,15.6,M,-33.8,M,,0000*58
[23;80H [24;1H$GPGSA,M,3,01,28,11,30,17,07,08,22,19,,,,1.8,1.1,1.4*3B
[23;80H [24;1H$GPRMC,033933.000,A,4220.3160,N,07105.5051,W,0.00,113.71,020217,,,D*71
