[!p[?3;4l[4l>[0m(B[?1h=[H[2J[?12l[?25h
Welcome to minicom 2.7

OPTIONS: I18n 
Compiled on Jan  1 2014, 17:13:19.
Port /dev/ttyUSB0, 19:47:44

Press CTRL-A Z for help on special keys

∆6∆&∆6∆&∆6∆ñ∆∆&f∆f∆∆Ü6∆∆&∆F∆6∆∆&∆Ü∆6∆&f∆Ü∆∆¶vÜ÷[11;54H$GPRMC,004803.000,A,4220.36[11;80H3[11;80H8[11;80H,[11;80HN[11;80H,[11;80H0[11;80H7[11;80H1[11;80H0[11;80H5[11;80H.[11;80H3[11;80H7[11;80H5[11;80H2[11;80H,[11;80HW[11;80H,[11;80H0[11;80H.[11;80H9[11;80H9[11;80H,[11;80H1[11;80H5[11;80H8[11;80H.[11;80H7[11;80H4[11;80H,[11;80H0[11;80H2[11;80H0[11;80H2[11;80H1[11;80H7[11;80H,[11;80H,[11;80H,[11;80HA[11;80H*[11;80H7[11;80H0[11;80H
$GPGGA,004804.000,4220.3627,N,07105.3746,W,1,05,1.9,13.0,M,-33.8,M,,0000*5D
$GPGSA,M,3,08,27,07,09,23,,,,,,,,2.9,1.9,2.2*3F
$GPRMC,004804.000,A,4220.3627,N,07105.3746,W,1.68,180.47,020217,,,A*76
$GPGGA,004805.000,4220.3617,N,07105.3742,W,1,05,1.9,13.0,M,-33.8,M,,0000*5B
$GPGSA,M,3,08,27,07,09,23,,,,,,,,2.9,1.9,2.2*3F
$GPRMC,004805.000,A,4220.3617,N,07105.3742,W,2.22,220.84,020217,,,A*7B
$GPGGA,004806.000,4220.3613,N,07105.3741,W,1,05,1.9,13.3,M,-33.8,M,,0000*5C
$GPGSA,M,3,08,27,07,09,23,,,,,,,,2.9,1.9,2.2*3F
$GPRMC,004806.000,A,4220.3613,N,07105.3741,W,3.46,256.55,020217,,,A*71
$GPGGA,004807.000,4220.3610,N,07105.3737,W,1,06,1.7,13.6,M,-33.8,M,,0000*57
$GPGSA,M,3,08,27,07,09,16,23,,,,,,,2.9,1.7,2.3*37
$GPRMC,004807.000,A,4220.3610,N,07105.3737,W,2.48,269.17,020217,,,A*77
$GPGGA,004808.000,4220.3612,N,07105.3733,W,1,06,1.7,13.3,M,-33.8,M,,0000*5B
[23;80H [24;1H$GPGSA,M,3,08,27,07,09,16,23,,,,,,,2.9,1.7,2.3*37
[23;80H [24;1H$GPGSV,3,1,12,08,76,190,17,27,57,054,20,07,57,307,16,09,35,240,16*73
[23;80H [24;1H$GPGSV,3,2,12,16,29,070,13,23,18,199,16,51,29,227,,11,24,178,*7C
[23;80H [24;1H$GPGSV,3,3,12,30,20,309,,26,06,083,,21,04,031,,28,03,268,*78
[23;80H [24;1H$GPRMC,004808.000,A,4220.3612,N,07105.3733,W,1.75,271.22,020217,,,A*7C
[23;80H [24;1H$GPGGA,004809.000,4220.3614,N,07105.3725,W,1,06,1.7,13.2,M,-33.8,M,,0000*5A
[23;80H [24;1H$GPGSA,M,3,08,27,07,09,16,23,,,,,,,2.9,1.7,2.3*37
[23;80H [24;1H$GPRMC,004809.000,A,4220.3614,N,07105.3725,W,2.54,284.49,020217,,,A*7B
[23;80H [24;1H$GPGGA,004810.000,4220.3620,N,07105.3717,W,1,06,1.7,13.3,M,-33.8,M,,0000*55
[23;80H [24;1H$GPGSA,M,3,08,27,07,09,16,23,,,,,,,2.9,1.7,2.3*37
[23;80H [24;1H$GPRMC,004810.000,A,4220.3620,N,07105.3717,W,3.42,301.68,020217,,,A*7C
[23;80H [24;1H$GPGGA,004811.000,4220.3627,N,07105.3713,W,1,06,1.7,13.2,M,-33.8,M,,0000*56
[23;80H [24;1H$GPGSA,M,3,08,27,07,09,16,23,,,,,,,2.9,1.7,2.3*37
[23;80H [24;1H$GPRMC,004811.000,A,4220.3627,N,07105.3713,W,4.14,322.69,020217,,,A*7A
[23;80H [24;1H$GPGGA,004812.000,4220.3641,N,07105.3710,W,1,06,1.7,13.1,M,-33.8,M,,0000*55
[23;80H [24;1H$GPGSA,M,3,08,27,07,09,16,23,,,,,,,2.9,1.7,2.3*37
[23;80H [24;1H$GPRMC,004812.000,A,4220.3641,N,07105.3710,W,5.89,337.81,020217,,,A*7D
[23;80H [24;1H$GPGGA,004813.000,4220.3648,N,07105.3709,W,1,06,1.7,13.1,M,-33.8,M,,0000*55
[23;80H [24;1H$GPGSA,M,3,08,27,07,09,16,23,,,,,,,2.9,1.7,2.3*37
[23;80H [24;1H$GPGSV,3,1,12,08,76,190,16,27,57,054,20,07,57,307,16,09,35,240,15*71
[23;80H [24;1H$GPGSV,3,2,12,16,29,070,12,23,18,199,17,33,16,114,,11,24,178,*77
[23;80H [24;1H$GPGSV,3,3,12,30,20,309,,26,06,083,,21,04,031,,28,03,268,*78
[23;80H [24;1H$GPRMC,004813.000,A,4220.3648,N,07105.3709,W,4.33,337.73,020217,,,A*70
[23;80H [24;1H$GPGGA,004814.000,4220.3652,N,07105.3712,W,1,06,1.7,13.0,M,-33.8,M,,0000*52
[23;80H [24;1H$GPGSA,M,3,08,27,07,09,16,23,,,,,,,2.9,1.7,2.3*37
[23;80H [24;1H$GPRMC,004814.000,A,4220.3652,N,07105.3712,W,4.53,336.45,020217,,,A*74
[23;80H [24;1H$GPGGA,004815.000,4220.3654,N,07105.3716,W,1,06,1.7,12.9,M,-33.8,M,,0000*59
[23;80H [24;1H$GPGSA,M,3,08,27,07,09,16,23,,,,,,,2.9,1.7,2.3*37
[23;80H [24;1H$GPRMC,004815.000,A,4220.3654,N,07105.3716,W,3.59,334.30,020217,,,A*7A
[23;80H [24;1H$GPGGA,004816.000,4220.3648,N,07105.3722,W,1,06,1.7,12.9,M,-33.8,M,,0000*50
[23;80H [24;1H$GPGSA,M,3,08,27,07,09,16,23,,,,,,,2.9,1.7,2.3*37
[23;80H [24;1H$GPRMC,004816.000,A,4220.3648,N,07105.3722,W,2.04,330.95,020217,,,A*71
[23;80H [24;1H$GPGGA,004817.000,4220.3648,N,07105.3733,W,1,06,1.7,13.0,M,-33.8,M,,0000*59
[23;80H [24;1H$GPGSA,M,3,08,27,07,09,16,23,,,,,,,2.9,1.7,2.3*37
[23;80H [24;1H$GPRMC,004817.000,A,4220.3648,N,07105.3733,W,2.83,318.69,020217,,,A*76
[23;80H [24;1H$GPGGA,004818.000,4220.3645,N,07105.3744,W,1,06,1.8,13.0,M,-33.8,M,,0000*54
[23;80H [24;1H$GPGSA,M,3,08,27,07,09,16,23,,,,,,,2.9,1.8,2.3*38
[23;80H [24;1H$GPGSV,3,1,12,08,76,190,16,27,57,054,20,07,57,307,16,09,35,240,14*70
[23;80H [24;1H$GPGSV,3,2,12,16,29,070,12,23,18,199,19,33,16,114,,11,24,178,*79
[23;80H [24;1H$GPGSV,3,3,12,30,20,309,,26,06,083,,21,04,031,,28,03,268,*78
[23;80H [24;1H$GPRMC,004818.000,A,4220.3645,N,07105.3744,W,2.07,315.48,020217,,,A*76
[23;80H [24;1H$GPGGA,004819.000,4220.3645,N,07105.3751,W,1,06,1.8,12.9,M,-33.8,M,,0000*59
[23;80H [24;1H$GPGSA,M,3,08,27,07,09,16,23,,,,,,,2.9,1.8,2.3*38
[23;80H [24;1H$GPRMC,004819.000,A,4220.3645,N,07105.3751,W,1.62,314.28,020217,,,A*74
[23;80H [24;1H$GPGGA,004820.000,4220.3640,N,07105.3749,W,1,06,1.8,12.9,M,-33.8,M,,0000*5F
[23;80H [24;1H$GPGSA,M,3,08,27,07,09,16,23,,,,,,,2.9,1.8,2.3*38
[23;80H [24;1H$GPRMC,004820.000,A,4220.3640,N,07105.3749,W,1.25,309.96,020217,,,A*78
[23;80H [24;1H$GPGGA,004821.000,4220.3633,N,07105.3748,W,1,06,1.8,12.8,M,-33.8,M,,0000*5A
[23;80H [24;1H$GPGSA,M,3,08,27,07,09,16,23,,,,,,,2.9,1.8,2.3*38
[23;80H [24;1H$GPRMC,004821.000,A,4220.3633,N,07105.3748,W,1.91,291.77,020217,,,A*7C
[23;80H [24;1H$GPGGA,004822.000,4220.3629,N,07105.3751,W,1,06,1.8,12.9,M,-33.8,M,,0000*5B
[23;80H [24;1H$GPGSA,M,3,08,27,07,09,16,23,,,,,,,2.9,1.8,2.3*38
[23;80H [24;1H$GPRMC,004822.000,A,4220.3629,N,07105.3751,W,0.61,291.77,020217,,,A*72
[23;80H [24;1H$GPGGA,004823.000,4220.3628,N,07105.3754,W,1,06,1.8,12.8,M,-33.8,M,,0000*5F
[23;80H [24;1H$GPGSA,M,3,08,27,07,09,16,23,,,,,,,2.9,1.8,2.3*38
[23;80H [24;1H$GPGSV,3,1,12,08,76,190,17,27,57,054,20,07,57,307,15,09,35,240,15*73
[23;80H [24;1H$GPGSV,3,2,12,16,29,070,12,23,18,199,19,33,16,114,,11,24,178,*79
[23;80H [24;1H$GPGSV,3,3,12,30,20,309,,26,06,083,,21,04,031,,28,03,268,*78
[23;80H [24;1H$GPRMC,004823.000,A,4220.3628,N,07105.3754,W,0.17,291.77,020217,,,A*76
[23;80H [24;1H$GPGGA,004824.000,4220.3632,N,07105.3756,W,1,06,1.8,12.9,M,-33.8,M,,0000*50
[23;80H [24;1H$GPGSA,M,3,08,27,07,09,16,23,,,,,,,2.9,1.8,2.3*38
[23;80H [24;1H$GPRMC,004824.000,A,4220.3632,N,07105.3756,W,0.31,291.77,020217,,,A*7C
[23;80H [24;1H$GPGGA,004825.000,4220.3637,N,07105.3759,W,1,06,1.8,13.0,M,-33.8,M,,0000*53
[23;80H [24;1H$GPGSA,M,3,08,27,07,09,16,23,,,,,,,2.9,1.8,2.3*38
[23;80H [24;1H$GPRMC,004825.000,A,4220.3637,N,07105.3759,W,0.26,291.77,020217,,,A*71
[23;80H [24;1H$GPGGA,004826.000,4220.3645,N,07105.3767,W,1,06,1.8,13.2,M,-33.8,M,,0000*5A
[23;80H [24;1H$GPGSA,M,3,08,27,07,09,16,23,,,,,,,2.9,1.8,2.3*38
[23;80H [24;1H$GPRMC,004826.000,A,4220.3645,N,07105.3767,W,1.20,294.10,020217,,,A*79
[23;80H [24;1H[0m(B[7m[K[?12l[?25h[?25lCTRL-A Z for help | 4800 8N1 | NOR | Minicom 2.7 | VT102 | Offline | ttyUSB0   [?12l[?25h[2;6H[?25l[0m(B+-------------------------------------------------------------------+[3;6H|                      Minicom Command Summary                      |[4;6H|                                                                   |[5;6H|              Commands can be called by CTRL-A <key>               |[6;6H|                                                                   |[7;6H|               Main Functions                  Other Functions     |[8;6H|                                                                   |[9;6H| Dialing directory..D  run script (Go)....G | Clear Screen.......C |[10;6H| Send files.........S  Receive files......R | cOnfigure Minicom..O |[11;6H| comm Parameters....P  Add linefeed.......A | Suspend minicom....J |[12;6H| Capture on/off.....L  Hangup.............H | eXit and reset.....X |[13;6H| send break.........F  initialize Modem...M | Quit with no reset.Q |[14;6H| Terminal settings..T  run Kermit.........K | Cursor key mode....I |[15;6H| lineWrap on/off....W  local Echo on/off..E | Help screen........Z |[16;6H| Paste file.........Y  Timestamp toggle...N | scroll Back........B |[17;6H| Add Carriage Ret...U                                              |[18;6H|                                                                   |[19;6H|             Select function or press Enter for none.              |[20;6H+-------------------------------------------------------------------+[19;60H[?12l[?25h[?12l[?25h[2;1H$GPRMC,004820.000,A,4220.3640,N,07105.3749,W,1.25,309.96,020217,,,A*78    [3;1H$GPGGA,004821.000,4220.3633,N,07105.3748,W,1,06,1.8,12.8,M,-33.8,M,,0000*5[4;1H$GPGSA,M,3,08,27,07,09,16,23,,,,,,,2.9,1.8,2.3*38                         [5;1H$GPRMC,004821.000,A,4220.3633,N,07105.3748,W,1.91,291.77,020217,,,A*7C    [6;1H$GPGGA,004822.000,4220.3629,N,07105.3751,W,1,06,1.8,12.9,M,-33.8,M,,0000*5[7;1H$GPGSA,M,3,08,27,07,09,16,23,,,,,,,2.9,1.8,2.3*38                         [8;1H$GPRMC,004822.000,A,4220.3629,N,07105.3751,W,0.61,291.77,020217,,,A*72    [9;1H$GPGGA,004823.000,4220.3628,N,07105.3754,W,1,06,1.8,12.8,M,-33.8,M,,0000*5[10;1H$GPGSA,M,3,08,27,07,09,16,23,,,,,,,2.9,1.8,2.3*38                         [11;1H$GPGSV,3,1,12,08,76,190,17,27,57,054,20,07,57,307,15,09,35,240,15*73      [12;1H$GPGSV,3,2,12,16,29,070,12,23,18,199,19,33,16,114,,11,24,178,*79          [13;1H$GPGSV,3,3,12,30,20,309,,26,06,083,,21,04,031,,28,03,268,*78              [14;1H$GPRMC,004823.000,A,4220.3628,N,07105.3754,W,0.17,291.77,020217,,,A*76    [15;1H$GPGGA,004824.000,4220.3632,N,07105.3756,W,1,06,1.8,12.9,M,-33.8,M,,0000*5[16;1H$GPGSA,M,3,08,27,07,09,16,23,,,,,,,2.9,1.8,2.3*38                         [17;1H$GPRMC,004824.000,A,4220.3632,N,07105.3756,W,0.31,291.77,020217,,,A*7C    [18;1H$GPGGA,004825.000,4220.3637,N,07105.3759,W,1,06,1.8,13.0,M,-33.8,M,,0000*5[19;1H$GPGSA,M,3,08,27,07,09,16,23,,,,,,,2.9,1.8,2.3*38                         [20;1H$GPRMC,004825.000,A,4220.3637,N,07105.3759,W,0.26,291.77,020217,,,A*71    [24;1H[0m(B[7m[0m(B[H[2J[?12l[?25h[24;1H                                                                               [1;1H$GPGGA,004827.000,4220.3647,N,07105.3770,W,1,06,1.8,13.2,M,-33.8,M,,0000*5F
$GPGSA,M,3,08,27,07,09,16,23,,,,,,,2.9,1.8,2.3*38
$GPRMC,004827.000,A,4220.3647,N,07105.3770,W,0.59,294.10,020217,,,A*73
$GPGGA,004828.000,4220.3648,N,07105.3775,W,1,05,1.9,13.5,M,-33.8,M,,0000*5F
$GPGSA,M,3,08,27,07,09,23,,,,,,,,2.9,1.9,2.2*3F
$GPGSV,3,1,12,08,76,190,17,27,57,054,20,07,57,307,14,09,35,240,17*70
$GPGSV,3,2,12,23,18,199,19,33,16,114,,16,29,070,,11,24,178,*7A
$GPGSV,3,3,12,30,20,309,,26,06,083,,21,04,031,,28,03,268,*78
$GPRMC,004828.000,A,4220.3648,N,07105.3775,W,1.02,294.10,020217,,,A*79
$GPGGA,004829.000,4220.3652,N,07105.3784,W,1,05,1.9,13.7,M,-33.8,M,,0000*59
$GPGSA,M,3,08,27,07,09,23,,,,,,,,2.9,1.9,2.2*3F
$GPRMC,004829.000,A,4220.3652,N,07105.3784,W,2.27,295.11,020217,,,A*79
$GPGGA,004830.000,4220.3656,N,07105.3786,W,1,05,1.9,13.9,M,-33.8,M,,0000*59
$GPGSA,M,3,08,27,07,09,23,,,,,,,,2.9,1.9,2.2*3F
$GPRMC,004830.000,A,4220.3656,N,07105.3786,W,1.23,297.61,020217,,,A*75
[0m(B[7m[24;1H[K[?12l[?25h[?25lCTRL-A Z for help | 4800 8N1 | NOR | Minicom 2.7 | VT102 | Offline | ttyUSB0   [?12l[?25h[16;1H[2;6H[?25l[0m(B+-------------------------------------------------------------------+[3;6H|                      Minicom Command Summary                      |[4;6H|                                                                   |[5;6H|              Commands can be called by CTRL-A <key>               |[6;6H|                                                                   |[7;6H|               Main Functions                  Other Functions     |[8;6H|                                                                   |[9;6H| Dialing directory..D  run script (Go)....G | Clear Screen.......C |[10;6H| Send files.........S  Receive files......R | cOnfigure Minicom..O |[11;6H| comm Parameters....P  Add linefeed.......A | Suspend minicom....J |[12;6H| Capture on/off.....L  Hangup.............H | eXit and reset.....X |[13;6H| send break.........F  initialize Modem...M | Quit with no reset.Q |[14;6H| Terminal settings..T  run Kermit.........K | Cursor key mode....I |[15;6H| lineWrap on/off....W  local Echo on/off..E | Help screen........Z |[16;6H| Paste file.........Y  Timestamp toggle...N | scroll Back........B |[17;6H| Add Carriage Ret...U                                              |[18;6H|                                                                   |[19;6H|             Select function or press Enter for none.              |[20;6H+-------------------------------------------------------------------+[19;60H[?12l[?25h[?12l[?25h[2;1H$GPGSA,M,3,08,27,07,09,16,23,,,,,,,2.9,1.8,2.3*38                         [3;1H$GPRMC,004827.000,A,4220.3647,N,07105.3770,W,0.59,294.10,020217,,,A*73    [4;1H$GPGGA,004828.000,4220.3648,N,07105.3775,W,1,05,1.9,13.5,M,-33.8,M,,0000*5[5;1H$GPGSA,M,3,08,27,07,09,23,,,,,,,,2.9,1.9,2.2*3F                           [6;1H$GPGSV,3,1,12,08,76,190,17,27,57,054,20,07,57,307,14,09,35,240,17*70      [7;1H$GPGSV,3,2,12,23,18,199,19,33,16,114,,16,29,070,,11,24,178,*7A            [8;1H$GPGSV,3,3,12,30,20,309,,26,06,083,,21,04,031,,28,03,268,*78              [9;1H$GPRMC,004828.000,A,4220.3648,N,07105.3775,W,1.02,294.10,020217,,,A*79    [10;1H$GPGGA,004829.000,4220.3652,N,07105.3784,W,1,05,1.9,13.7,M,-33.8,M,,0000*5[11;1H$GPGSA,M,3,08,27,07,09,23,,,,,,,,2.9,1.9,2.2*3F                           [12;1H$GPRMC,004829.000,A,4220.3652,N,07105.3784,W,2.27,295.11,020217,,,A*79    [13;1H$GPGGA,004830.000,4220.3656,N,07105.3786,W,1,05,1.9,13.9,M,-33.8,M,,0000*5[14;1H$GPGSA,M,3,08,27,07,09,23,,,,,,,,2.9,1.9,2.2*3F                           [15;1H$GPRMC,004830.000,A,4220.3656,N,07105.3786,W,1.23,297.61,020217,,,A*75    [16;1H                                                                          [17;1H                                                                          [18;1H                                                                          [19;1H                                                                          [20;1H                                                                          [16;1H[0m(B[7m[8;30H[?25l[0m(B+----------------------+[9;30H|    Leave Minicom?    |[10;30H|               No     |[11;30H+----------------------+[10;51H[?25l[10;33H[0m(B[7m   Yes  [?12l[?25h[8;1H[0m(B$GPGSV,3,3,12,30,20,309,,26,06,083,,21,04,031,,28,03,[9;1H$GPRMC,004828.000,A,4220.3648,N,07105.3775,W,1.02,294[10;1H$GPGGA,004829.000,4220.3652,N,07105.3784,W,1,05,1.9,1[11;1H$GPGSA,M,3,08,27,07,09,23,,,,,,,,2.9,1.9,2.2*3F      [16;1H[0m(B[7m[?12l[?25h[?12l[?25h[0m(B[H[2J[?12l[?25h[?1l>[!p[?3;4l[4l>