[!p[?3;4l[4l>[0m(B[?1h=[H[2J[?12l[?25h
Welcome to minicom 2.7

OPTIONS: I18n 
Compiled on Jan  1 2014, 17:13:19.
Port /dev/ttyUSB0, 22:35:54

Press CTRL-A Z for help on special keys

$GPGGA,034701.000,4220.3258,N,07105.4975,W,2,09,1.2,25.0,M,-33.8,M,4.0,0000*7A
$GPGSA,M,3,01,28,11,30,17,08,22,19,03,,,,1.9,1.2,1.4*3D
$GPRMC,034701.000,A,4220.3258,N,07105.4975,W,0.00,359.21,020217,,,D*76
$GPGGA,034702.000,4220.3256,N,07105.4975,W,2,09,1.2,25.3,M,-33.8,M,,0000*5E
$GPGSA,M,3,01,28,11,30,17,08,22,19,03,,,,1.9,1.2,1.4*3D
$GPRMC,034702.000,A,4220.3256,N,07105.4975,W,0.73,359.21,020217,,,D*7F
$GPGGA,034703.000,4220.3253,N,07105.4976,W,2,09,1.2,25.6,M,-33.8,M,,0000*5C
$GPGSA,M,3,01,28,11,30,17,08,22,19,03,,,,1.9,1.2,1.4*3D
$GPRMC,034703.000,A,4220.3253,N,07105.4976,W,1.19,259.03,020217,,,D*74
$GPGGA,034704.000,4220.3249,N,07105.4978,W,2,10,1.0,26.1,M,-33.8,M,,0000*50
$GPGSA,M,3,01,28,11,30,17,08,07,22,19,03,,,1.8,1.0,1.4*39
$GPGSV,3,1,12,01,67,090,37,28,66,322,47,11,56,060,40,30,49,219,45*7B
$GPGSV,3,2,12,17,34,265,43,08,23,067,32,07,23,184,19,22,20,114,40*74
$GPGSV,3,3,12,19,14,256,28,03,13,132,24,13,06,285,27,51,29,227,39*77
$GPRMC,034704.000,A,4220.3249,N,07105.4978,W,1.32,232.51,020217,,,D*75
[23;80H [24;1H$GPGGA,034705.000,4220.3246,N,07105.4981,W,2,09,1.2,26.0,M,-33.8,M,,0000*53
[23;80H [24;1H$GPGSA,M,3,01,28,11,30,17,08,22,19,03,,,,1.9,1.2,1.4*3D
[23;80H [24;1H$GPRMC,034705.000,A,4220.3246,N,07105.4981,W,1.37,221.17,020217,,,D*78
[23;80H [24;1H$GPGGA,034706.000,4220.3242,N,07105.4984,W,2,09,1.2,26.2,M,-33.8,M,,0000*53
[23;80H [24;1H$GPGSA,M,3,01,28,11,30,17,08,22,19,03,,,,1.9,1.2,1.4*3D
[23;80H [24;1H$GPRMC,034706.000,A,4220.3242,N,07105.4984,W,1.32,216.32,020217,,,D*7C
[23;80H [24;1H$GPGGA,034707.000,4220.3238,N,07105.4987,W,2,09,1.2,26.2,M,-33.8,M,3.0,0000*71
[23;80H [24;1H$GPGSA,M,3,01,28,11,30,17,08,22,19,03,,,,1.9,1.2,1.4*3D
[23;80H [24;1H$GPRMC,034707.000,A,4220.3238,N,07105.4987,W,1.46,206.59,020217,,,D*7C
[23;80H [24;1H$GPGGA,034708.000,4220.3234,N,07105.4991,W,2,10,1.0,26.4,M,-33.8,M,4.0,0000*7E
[23;80H [24;1H$GPGSA,M,3,01,28,11,30,17,08,07,22,19,03,,,1.8,1.0,1.4*39
[23;80H [24;1H$GPRMC,034708.000,A,4220.3234,N,07105.4991,W,1.55,213.21,020217,,,D*71
[23;80H [24;1H$GPGGA,034709.000,4220.3231,N,07105.4994,W,2,10,1.0,26.6,M,-33.8,M,,0000*57
[23;80H [24;1H$GPGSA,M,3,01,28,11,30,17,08,07,22,19,03,,,1.8,1.0,1.4*39
[23;80H [24;1H$GPGSV,3,1,12,01,67,090,36,28,66,322,46,11,56,060,41,30,49,219,43*7C
[23;80H [24;1H$GPGSV,3,2,12,17,34,265,36,08,23,067,32,07,23,184,25,22,20,114,35*7B
[23;80H [24;1H$GPGSV,3,3,12,19,14,256,26,03,13,132,32,13,06,285,26,51,29,227,42*73
[23;80H [24;1H$GPRMC,034709.000,A,4220.3231,N,07105.4994,W,1.57,211.30,020217,,,D*70
[23;80H [24;1H$GPGGA,034710.000,4220.3227,N,07105.4998,W,2,10,1.0,27.0,M,-33.8,M,,0000*53
[23;80H [24;1H$GPGSA,M,3,01,28,11,30,17,08,07,22,19,03,,,1.8,1.0,1.4*39
[23;80H [24;1H$GPRMC,034710.000,A,4220.3227,N,07105.4998,W,1.57,207.18,020217,,,D*7E
[23;80H [24;1H$GPGGA,034711.000,4220.3223,N,07105.5002,W,2,10,1.0,27.2,M,-33.8,M,,0000*5F
[23;80H [24;1H$GPGSA,M,3,01,28,11,30,17,08,07,22,19,03,,,1.8,1.0,1.4*39
[23;80H [24;1H$GPRMC,034711.000,A,4220.3223,N,07105.5002,W,1.64,207.40,020217,,,D*7D
[23;80H [24;1H$GPGGA,034712.000,4220.3219,N,07105.5007,W,2,10,1.0,27.5,M,-33.8,M,,0000*57
[23;80H [24;1H$GPGSA,M,3,01,28,11,30,17,08,07,22,19,03,,,1.8,1.0,1.4*39
[23;80H [24;1H$GPRMC,034712.000,A,4220.3219,N,07105.5007,W,1.88,206.62,020217,,,D*71
[23;80H [24;1H$GPGGA,034713.000,4220.3215,N,07105.5010,W,2,10,1.0,27.7,M,-33.8,M,3.0,0000*73
[23;80H [24;1H$GPGSA,M,3,01,28,11,30,17,08,07,22,19,03,,,1.8,1.0,1.4*39
[23;80H [24;1H$GPRMC,034713.000,A,4220.3215,N,07105.5010,W,1.39,209.43,020217,,,D*7C
[23;80H [24;1H$GPGGA,034714.000,4220.3213,N,07105.5015,W,2,10,1.0,27.4,M,-33.8,M,4.0,0000*73
[23;80H [24;1H$GPGSA,M,3,01,28,11,30,17,08,07,22,19,03,,,1.8,1.0,1.4*39
[23;80H [24;1H$GPGSV,3,1,12,01,67,090,42,28,66,322,45,11,56,060,42,30,49,219,43*7F
[23;80H [24;1H$GPGSV,3,2,12,17,34,265,31,08,23,067,35,07,23,184,28,22,20,114,36*75
[23;80H [24;1H$GPGSV,3,3,12,19,14,256,30,03,13,132,22,13,06,285,25,51,29,227,41*75
[23;80H [24;1H$GPRMC,034714.000,A,4220.3213,N,07105.5015,W,1.36,211.70,020217,,,D*7E
[23;80H [24;1H$GPGGA,034715.000,4220.3210,N,07105.5021,W,2,10,1.0,27.2,M,-33.8,M,,0000*5A
[23;80H [24;1H$GPGSA,M,3,01,28,11,30,17,08,07,22,19,03,,,1.8,1.0,1.4*39
[23;80H [24;1H$GPRMC,034715.000,A,4220.3210,N,07105.5021,W,1.54,212.96,020217,,,D*74
[23;80H [24;1H$GPGGA,034716.000,4220.3208,N,07105.5026,W,2,10,1.0,26.9,M,-33.8,M,,0000*5D
[23;80H [24;1H$GPGSA,M,3,01,28,11,30,17,08,07,22,19,03,,,1.8,1.0,1.4*39
[23;80H [24;1H$GPRMC,034716.000,A,4220.3208,N,07105.5026,W,1.43,211.44,020217,,,D*73
[23;80H [24;1H$GPGGA,034717.000,4220.3205,N,07105.5031,W,2,10,1.0,27.6,M,-33.8,M,,0000*59
[23;80H [24;1H$GPGSA,M,3,01,28,11,30,17,08,07,22,19,03,,,1.8,1.0,1.4*39
[23;80H [24;1H$GPRMC,034717.000,A,4220.3205,N,07105.5031,W,1.61,213.57,020217,,,D*79
[23;80H [24;1H$GPGGA,034718.000,4220.3202,N,07105.5036,W,2,10,1.0,28.0,M,-33.8,M,3.0,0000*72
[23;80H [24;1H$GPGSA,M,3,01,28,11,30,17,08,07,22,19,03,,,1.8,1.0,1.4*39
[23;80H [24;1H$GPRMC,034718.000,A,4220.3202,N,07105.5036,W,1.63,222.84,020217,,,D*78
[23;80H [24;1H$GPGGA,034719.000,4220.3198,N,07105.5041,W,2,10,1.0,28.3,M,-33.8,M,4.0,0000*77
[23;80H [24;1H$GPGSA,M,3,01,28,11,30,17,08,07,22,19,03,,,1.8,1.0,1.4*39
[23;80H [24;1H$GPGSV,3,1,12,01,67,090,39,28,66,322,45,11,56,060,42,30,49,219,43*73
[23;80H [24;1H$GPGSV,3,2,12,17,34,265,29,08,23,067,28,07,23,184,33,22,20,114,31*7D
[23;80H [24;1H$GPGSV,3,3,12,19,14,256,30,03,13,132,26,13,06,285,25,51,29,227,38*7F
[23;80H [24;1H$GPRMC,034719.000,A,4220.3198,N,07105.5041,W,1.64,216.25,020217,,,D*72
[23;80H [24;1H$GPGGA,034720.000,4220.3194,N,07105.5043,W,2,10,1.0,28.9,M,-33.8,M,5.0,0000*78
[23;80H [24;1H$GPGSA,M,3,01,28,11,30,17,08,07,22,19,03,,,1.8,1.0,1.4*39
[23;80H [24;1H$GPRMC,034720.000,A,4220.3194,N,07105.5043,W,1.45,211.61,020217,,,D*72
[23;80H [24;1H$GPGGA,034721.000,4220.3189,N,07105.5047,W,2,10,1.0,29.6,M,-33.8,M,,0000*54
[23;80H [24;1H$GPGSA,M,3,01,28,11,30,17,08,07,22,19,03,,,1.8,1.0,1.4*39
[23;80H [24;1H$GPRMC,034721.000,A,4220.3189,N,07105.5047,W,1.61,208.21,020217,,,D*71
[23;80H [24;1H$GPGGA,034722.000,4220.3185,N,07105.5049,W,2,10,1.0,30.1,M,-33.8,M,3.0,0000*77
[23;80H [24;1H$GPGSA,M,3,01,28,11,30,17,08,07,22,19,03,,,1.8,1.0,1.4*39
[23;80H [24;1H$GPRMC,034722.000,A,4220.3185,N,07105.5049,W,1.21,205.67,020217,,,D*7B
[23;80H [24;1H$GPGGA,034723.000,4220.3181,N,07105.5052,W,2,10,1.0,31.1,M,-33.8,M,,0000*54
[23;80H [24;1H$GPGSA,M,3,01,28,11,30,17,08,07,22,19,03,,,1.8,1.0,1.4*39
[23;80H [24;1H$GPRMC,034723.000,A,4220.3181,N,07105.5052,W,1.20,208.75,020217,,,D*7B
[23;80H [24;1H$GPGGA,034724.000,4220.3178,N,07105.5057,W,2,09,1.1,32.1,M,-33.8,M,3.0,0000*77
[23;80H [24;1H$GPGSA,M,3,01,28,11,30,17,08,07,22,19,,,,1.8,1.1,1.5*3A
[23;80H [24;1H$GPGSV,3,1,12,01,67,090,35,28,66,322,45,11,56,060,42,30,49,219,40*7C
[23;80H [24;1H$GPGSV,3,2,12,17,34,265,27,08,23,067,36,07,23,184,37,22,20,114,37*7E
[23;80H [24;1H$GPGSV,3,3,12,19,14,256,31,13,06,285,25,51,29,227,37,03,13,132,*75
[23;80H [24;1H$GPRMC,034724.000,A,4220.3178,N,07105.5057,W,1.92,202.82,020217,,,D*74
[23;80H [24;1H$GPGGA,034725.000,4220.3177,N,07105.5061,W,2,09,1.1,33.2,M,-33.8,M,4.0,0000*79
[23;80H [24;1H$GPGSA,M,3,01,28,11,30,17,08,07,22,19,,,,1.8,1.1,1.5*3A
[23;80H [24;1H$GPRMC,034725.000,A,4220.3177,N,07105.5061,W,0.98,202.82,020217,,,D*74
[23;80H [24;1H$GPGGA,034726.000,4220.3178,N,07105.5066,W,2,09,1.1,32.2,M,-33.8,M,5.0,0000*72
[23;80H [24;1H$GPGSA,M,3,01,28,11,30,17,08,07,22,19,,,,1.8,1.1,1.5*3A
[23;80H [24;1H$GPRMC,034726.000,A,4220.3178,N,07105.5066,W,1.35,210.82,020217,,,D*7A
[23;80H [24;1H$GPGGA,034727.000,4220.3177,N,07105.5069,W,2,10,1.0,32.3,M,-33.8,M,,0000*50
[23;80H [24;1H$GPGSA,M,3,01,28,11,30,17,08,07,22,19,03,,,1.8,1.0,1.4*39
[23;80H [24;1H$GPRMC,034727.000,A,4220.3177,N,07105.5069,W,1.47,211.77,020217,,,D*75
[23;80H [24;1H$GPGGA,034728.000,4220.3172,N,07105.5072,W,2,10,1.0,32.9,M,-33.8,M,3.0,0000*77
[23;80H [24;1H$GPGSA,M,3,01,28,11,30,17,08,07,22,19,03,,,1.8,1.0,1.4*39
[23;80H [24;1H$GPRMC,034728.000,A,4220.3172,N,07105.5072,W,1.39,212.42,020217,,,D*79
[23;80H [24;1H$GPGGA,034729.000,4220.3167,N,07105.5074,W,2,09,1.1,33.5,M,-33.8,M,4.0,0000*77
[23;80H [24;1H$GPGSA,M,3,01,28,11,30,17,08,07,22,19,,,,1.8,1.1,1.5*3A
[23;80H [24;1H$GPGSV,3,1,12,01,67,090,33,28,66,322,38,11,56,060,41,30,49,219,48*7B
[23;80H [24;1H$GPGSV,3,2,12,17,34,265,40,08,23,067,36,07,23,184,31,22,20,114,29*76
[23;80H [24;1H$GPGSV,3,3,12,19,14,256,42,03,13,132,17,13,06,285,24,51,29,227,39*78
[23;80H [24;1H$GPRMC,034729.000,A,4220.3167,N,07105.5074,W,1.48,215.11,020217,,,D*7D
[23;80H [24;1H$GPGGA,034730.000,4220.3164,N,07105.5078,W,2,10,1.0,33.7,M,-33.8,M,5.0,0000*7A
[23;80H [24;1H$GPGSA,M,3,01,28,11,30,17,08,07,22,19,03,,,1.8,1.0,1.4*39
[23;80H [24;1H$GPRMC,034730.000,A,4220.3164,N,07105.5078,W,1.46,213.89,020217,,,D*73
[23;80H [24;1H$GPGGA,034731.000,4220.3159,N,07105.5081,W,2,10,1.0,34.4,M,-33.8,M,6.0,0000*74
[23;80H [24;1H$GPGSA,M,3,01,28,11,30,17,08,07,22,19,03,,,1.8,1.0,1.4*39
[23;80H [24;1H$GPRMC,034731.000,A,4220.3159,N,07105.5081,W,1.57,214.44,020217,,,D*7C
[23;80H [24;1H$GPGGA,034732.000,4220.3155,N,07105.5085,W,2,10,1.0,34.8,M,-33.8,M,7.0,0000*72
[23;80H [24;1H$GPGSA,M,3,01,28,11,30,17,08,07,22,19,03,,,1.8,1.0,1.4*39
[23;80H [24;1H$GPRMC,034732.000,A,4220.3155,N,07105.5085,W,1.53,217.06,020217,,,D*76
[23;80H [24;1H$GPGGA,034733.000,4220.3151,N,07105.5089,W,2,10,1.0,34.8,M,-33.8,M,8.0,0000*74
[23;80H [24;1H$GPGSA,M,3,01,28,11,30,17,08,07,22,19,03,,,1.8,1.0,1.4*39
[23;80H [24;1H$GPRMC,034733.000,A,4220.3151,N,07105.5089,W,1.48,215.63,020217,,,D*74
[23;80H [24;1H$GPGGA,034734.000,4220.3147,N,07105.5093,W,2,10,1.0,34.8,M,-33.8,M,9.0,0000*7E
[23;80H [24;1H$GPGSA,M,3,01,28,11,30,17,08,07,22,19,03,,,1.8,1.0,1.4*39
[23;80H [24;1H$GPGSV,3,1,12,01,67,090,38,28,66,322,31,11,56,060,41,30,49,219,45*74
[23;80H [24;1H$GPGSV,3,2,12,17,34,265,45,08,23,067,35,07,23,184,31,22,20,114,30*78
[23;80H [24;1H$GPGSV,3,3,12,19,14,256,33,03,13,132,25,13,06,285,25,51,29,227,42*72
[23;80H [24;1H$GPRMC,034734.000,A,4220.3147,N,07105.5093,W,1.83,211.15,020217,,,D*7D
[23;80H [24;1H$GPGGA,034735.000,4220.3142,N,07105.5096,W,2,09,1.1,34.5,M,-33.8,M,,0000*5C
[23;80H [24;1H$GPGSA,M,3,01,28,11,30,17,08,07,22,19,,,,1.8,1.1,1.5*3A
[23;80H [24;1H$GPRMC,034735.000,A,4220.3142,N,07105.5096,W,1.88,208.18,020217,,,D*72
[23;80H [24;1H$GPGGA,034736.000,4220.3138,N,07105.5100,W,2,09,1.1,34.6,M,-33.8,M,3.0,0000*72
[23;80H [24;1H$GPGSA,M,3,01,28,11,30,17,08,07,22,19,,,,1.8,1.1,1.5*3A
[23;80H [24;1H$GPRMC,034736.000,A,4220.3138,N,07105.5100,W,1.28,213.64,020217,,,D*79
[23;80H [24;1H$GPGGA,034737.000,4220.3136,N,07105.5105,W,2,09,1.1,35.2,M,-33.8,M,4.0,0000*7A
[23;80H [24;1H$GPGSA,M,3,01,28,11,30,17,08,07,22,19,,,,1.8,1.1,1.5*3A
[23;80H [24;1H$GPRMC,034737.000,A,4220.3136,N,07105.5105,W,1.40,219.16,020217,,,D*72
[23;80H [24;1H$GPGGA,034738.000,4220.3133,N,07105.5110,W,2,10,1.0,35.4,M,-33.8,M,,0000*51
[23;80H [24;1H$GPGSA,M,3,01,28,11,30,17,08,07,22,19,03,,,1.8,1.0,1.4*39
[23;80H [24;1H$GPRMC,034738.000,A,4220.3133,N,07105.5110,W,1.44,219.78,020217,,,D*70
[23;80H [24;1H$GPGGA,034739.000,4220.3128,N,07105.5114,W,2,09,1.1,36.1,M,-33.8,M,,0000*51
[23;80H [24;1H$GPGSA,M,3,28,11,30,17,08,07,22,19,03,,,,2.0,1.1,1.7*31
[23;80H [24;1H$GPGSV,3,1,12,28,66,322,24,11,56,060,41,30,49,219,46,17,34,265,44*71
[23;80H [24;1H$GPGSV,3,2,12,08,23,067,29,07,23,184,32,22,20,114,23,19,14,256,30*7A
[23;80H [24;1H$GPGSV,3,3,12,03,13,132,21,01,67,090,40,13,06,285,27,51,29,227,43*74
[23;80H [24;1H$GPRMC,034739.000,A,4220.3128,N,07105.5114,W,1.53,217.19,020217,,,D*70
[23;80H [24;1H$GPGGA,034740.000,4220.3125,N,07105.5117,W,2,09,1.1,36.4,M,-33.8,M,,0000*54
[23;80H [24;1H$GPGSA,M,3,01,28,11,30,17,08,07,22,19,,,,1.8,1.1,1.5*3A
[23;80H [24;1H$GPRMC,034740.000,A,4220.3125,N,07105.5117,W,1.22,219.13,020217,,,D*72
[23;80H [24;1H$GPGGA,034741.000,4220.3121,N,07105.5120,W,2,10,1.0,36.8,M,-33.8,M,,0000*50
[23;80H [24;1H$GPGSA,M,3,01,28,11,30,17,08,07,22,19,03,,,1.8,1.0,1.4*39
[23;80H [24;1H$GPRMC,034741.000,A,4220.3121,N,07105.5120,W,1.45,216.87,020217,,,D*70
[23;80H [24;1H$GPGGA,034742.000,4220.3119,N,07105.5126,W,2,10,1.0,37.3,M,-33.8,M,3.0,0000*79
[23;80H [24;1H$GPGSA,M,3,01,28,11,30,17,08,07,22,19,03,,,1.8,1.0,1.4*39
[23;80H [24;1H$GPRMC,034742.000,A,4220.3119,N,07105.5126,W,1.47,217.44,020217,,,D*72
[23;80H [24;1H$GPGGA,034743.000,4220.3116,N,07105.5131,W,2,10,1.0,37.8,M,-33.8,M,4.0,0000*7D
[23;80H [24;1H$GPGSA,M,3,01,28,11,30,17,08,07,22,19,03,,,1.8,1.0,1.4*39
[23;80H [24;1H$GPRMC,034743.000,A,4220.3116,N,07105.5131,W,1.82,214.11,020217,,,D*70
[23;80H [24;1H$GPGGA,034744.000,4220.3113,N,07105.5136,W,2,10,1.0,38.1,M,-33.8,M,5.0,0000*7F
[23;80H [24;1H$GPGSA,M,3,01,28,11,30,17,08,07,22,19,03,,,1.8,1.0,1.4*39
[23;80H [24;1H$GPGSV,3,1,12,01,67,090,38,28,66,322,23,11,56,060,41,30,49,219,46*74
[23;80H [24;1H$GPGSV,3,2,12,17,34,265,42,08,23,067,28,07,23,184,35,22,20,114,29*7F
[23;80H [24;1H$GPGSV,3,3,12,19,14,256,30,03,13,132,24,13,06,285,28,51,29,227,41*7E
[23;80H [24;1H$GPRMC,034744.000,A,4220.3113,N,07105.5136,W,1.51,214.09,020217,,,D*72
[23;80H [24;1H$GPGGA,034745.000,4220.3110,N,07105.5141,W,2,10,1.0,38.4,M,-33.8,M,,0000*53
[23;80H [24;1H$GPGSA,M,3,01,28,11,30,17,08,07,22,19,03,,,1.8,1.0,1.4*39
[23;80H [24;1H$GPRMC,034745.000,A,4220.3110,N,07105.5141,W,1.66,213.25,020217,,,D*7D
[23;80H [24;1H$GPGGA,034746.000,4220.3106,N,07105.5145,W,2,10,1.0,38.7,M,-33.8,M,3.0,0000*7D
[23;80H [24;1H$GPGSA,M,3,01,28,11,30,17,08,07,22,19,03,,,1.8,1.0,1.4*39
[23;80H [24;1H$GPRMC,034746.000,A,4220.3106,N,07105.5145,W,1.64,210.46,020217,,,D*79
[23;80H [24;1H$GPGGA,034747.000,4220.3105,N,07105.5151,W,2,10,1.0,39.8,M,-33.8,M,,0000*59
[23;80H [24;1H$GPGSA,M,3,01,28,11,30,17,08,07,22,19,03,,,1.8,1.0,1.4*39
[23;80H [24;1H$GPRMC,034747.000,A,4220.3105,N,07105.5151,W,1.69,213.12,020217,,,D*71
[23;80H [24;1H$GPGGA,034748.000,4220.3101,N,07105.5156,W,2,10,1.0,40.4,M,-33.8,M,3.0,0000*7A
[23;80H [24;1H$GPGSA,M,3,01,28,11,30,17,08,07,22,19,03,,,1.8,1.0,1.4*39
[23;80H [24;1H$GPRMC,034748.000,A,4220.3101,N,07105.5156,W,1.61,214.23,020217,,,D*70
[23;80H [24;1H$GPGGA,034749.000,4220.3096,N,07105.5159,W,2,10,1.0,40.7,M,-33.8,M,4.0,0000*7F
[23;80H [24;1H$GPGSA,M,3,01,28,11,30,17,08,07,22,19,03,,,1.8,1.0,1.4*39
[23;80H [24;1H$GPGSV,3,1,12,01,67,090,38,28,66,322,23,11,56,060,41,30,49,219,46*74
[23;80H [24;1H$GPGSV,3,2,12,17,34,265,36,08,23,067,28,07,23,184,32,22,20,114,26*74
[23;80H [24;1H$GPGSV,3,3,12,19,14,256,30,03,13,132,24,13,06,285,28,51,29,227,43*7C
[23;80H [24;1H$GPRMC,034749.000,A,4220.3096,N,07105.5159,W,1.51,210.28,020217,,,D*7D
[23;80H [24;1H$GPGGA,034750.000,4220.3093,N,07105.5162,W,2,10,1.0,41.6,M,-33.8,M,,0000*50
[23;80H [24;1H$GPGSA,M,3,01,28,11,30,17,08,07,22,19,03,,,1.8,1.0,1.4*39
[23;80H [24;1H$GPRMC,034750.000,A,4220.3093,N,07105.5162,W,1.77,199.23,020217,,,D*75
[23;80H [24;1H$GPGGA,034751.000,4220.3090,N,07105.5167,W,2,10,1.0,42.4,M,-33.8,M,3.0,0000*7B
[23;80H [24;1H$GPGSA,M,3,01,28,11,30,17,08,07,22,19,03,,,1.8,1.0,1.4*39
[23;80H [24;1H$GPRMC,034751.000,A,4220.3090,N,07105.5167,W,1.36,202.11,020217,,,D*77
[23;80H [24;1H$GPGGA,034752.000,4220.3087,N,07105.5171,W,2,10,1.0,43.0,M,-33.8,M,4.0,0000*7B
[23;80H [24;1H$GPGSA,M,3,01,28,11,30,17,08,07,22,19,03,,,1.8,1.0,1.4*39
[23;80H [24;1H$GPRMC,034752.000,A,4220.3087,N,07105.5171,W,1.50,203.20,020217,,,D*76
[23;80H [24;1H$GPGGA,034753.000,4220.3084,N,07105.5176,W,2,10,1.0,43.5,M,-33.8,M,,0000*51
[23;80H [24;1H$GPGSA,M,3,01,28,11,30,17,08,07,22,19,03,,,1.8,1.0,1.4*39
[23;80H [24;1H$GPRMC,034753.000,A,4220.3084,N,07105.5176,W,1.54,203.94,020217,,,D*78
[23;80H [24;1H$GPGGA,034754.000,4220.3080,N,07105.5179,W,2,09,1.1,43.5,M,-33.8,M,3.0,0000*79
[23;80H [24;1H$GPGSA,M,3,01,28,11,30,17,08,07,22,19,,,,1.8,1.1,1.5*3A
[23;80H [24;1H$GPGSV,3,1,12,01,67,090,38,28,66,322,31,11,56,060,41,30,49,219,45*74
[23;80H [24;1H$GPGSV,3,2,12,17,34,265,47,08,23,067,29,07,23,184,33,22,20,114,27*73
[23;80H [24;1H$GPGSV,3,3,12,19,14,256,31,13,06,285,28,51,29,227,38,03,13,132,*77
[23;80H [24;1H$GPRMC,034754.000,A,4220.3080,N,07105.5179,W,1.62,198.83,020217,,,D*76
[23;80H [24;1H$GPGGA,034755.000,4220.3077,N,07105.5185,W,2,09,1.1,43.6,M,-33.8,M,4.0,0000*77
[23;80H [24;1H$GPGSA,M,3,01,28,11,30,17,08,07,22,19,,,,1.8,1.1,1.5*3A
[23;80H [24;1H$GPRMC,034755.000,A,4220.3077,N,07105.5185,W,1.37,202.79,020217,,,D*79
[23;80H [24;1H$GPGGA,034756.000,4220.3079,N,07105.5194,W,2,10,1.0,45.3,M,-33.8,M,5.0,0000*71
[23;80H [24;1H$GPGSA,M,3,01,28,11,30,17,08,07,22,19,03,,,1.8,1.0,1.4*39
[23;80H [24;1H$GPRMC,034756.000,A,4220.3079,N,07105.5194,W,1.64,203.50,020217,,,D*78
[23;80H [24;1H$GPGGA,034757.000,4220.3075,N,07105.5201,W,2,09,1.2,45.8,M,-33.8,M,,0000*59
[23;80H [24;1H$GPGSA,M,3,01,28,11,30,17,08,07,22,03,,,,2.2,1.2,1.9*37
[23;80H [24;1H$GPRMC,034757.000,A,4220.3075,N,07105.5201,W,1.57,205.58,020217,,,D*74
[23;80H [24;1H$GPGGA,034758.000,4220.3072,N,07105.5204,W,2,10,1.0,45.6,M,-33.8,M,3.0,0000*7D
[23;80H [24;1H$GPGSA,M,3,01,28,11,30,17,08,07,22,19,03,,,1.8,1.0,1.4*39
[23;80H [24;1H$GPRMC,034758.000,A,4220.3072,N,07105.5204,W,1.41,200.10,020217,,,D*77
[23;80H [24;1H$GPGGA,034759.000,4220.3068,N,07105.5207,W,2,10,1.0,45.7,M,-33.8,M,,0000*58
[23;80H [24;1H$GPGSA,M,3,01,28,11,30,17,08,07,22,19,03,,,1.8,1.0,1.4*39
[23;80H [24;1H$GPGSV,3,1,12,01,67,090,33,28,66,322,32,11,56,060,41,30,49,219,46*7F
[23;80H [24;1H$GPGSV,3,2,12,17,34,265,48,08,23,067,29,07,23,184,38,22,20,114,27*77
[23;80H [24;1H$GPGSV,3,3,12,19,14,256,28,03,13,132,24,13,06,285,25,51,29,227,41*7A
[23;80H [24;1H$GPRMC,034759.000,A,4220.3068,N,07105.5207,W,1.26,203.62,020217,,,D*79
[23;80H [24;1H$GPGGA,034800.000,4220.3069,N,07105.5214,W,2,08,1.4,46.5,M,-33.8,M,3.0,0000*79
[23;80H [24;1H$GPGSA,M,3,01,28,11,30,17,07,19,03,,,,,2.3,1.4,1.9*30
[23;80H [24;1H$GPRMC,034800.000,A,4220.3069,N,07105.5214,W,1.40,206.76,020217,,,D*79
[23;80H [24;1H$GPGGA,034801.000,4220.3067,N,07105.5219,W,2,08,1.4,47.6,M,-33.8,M,4.0,0000*7E
[23;80H [24;1H$GPGSA,M,3,01,28,11,30,17,07,19,03,,,,,2.3,1.4,1.9*30
[23;80H [24;1H$GPRMC,034801.000,A,4220.3067,N,07105.5219,W,1.21,213.63,020217,,,D*7C
[23;80H [24;1H$GPGGA,034802.000,4220.3067,N,07105.5225,W,2,08,1.4,48.0,M,-33.8,M,5.0,0000*7A
[23;80H [24;1H$GPGSA,M,3,01,28,11,30,17,07,19,03,,,,,2.3,1.4,1.9*30
[23;80H [24;1H$GPRMC,034802.000,A,4220.3067,N,07105.5225,W,1.36,217.51,020217,,,D*73
[23;80H [24;1H$GPGGA,034803.000,4220.3065,N,07105.5232,W,2,09,1.1,49.0,M,-33.8,M,,0000*51
[23;80H [24;1H$GPGSA,M,3,01,28,11,30,17,08,07,19,03,,,,1.8,1.1,1.5*39
[23;80H [24;1H$GPRMC,034803.000,A,4220.3065,N,07105.5232,W,1.43,218.17,020217,,,D*79
[23;80H [24;1H$GPGGA,034804.000,4220.3061,N,07105.5236,W,2,08,1.3,48.9,M,-33.8,M,,0000*5D
[23;80H [24;1H$GPGSA,M,3,01,28,11,30,17,08,19,03,,,,,1.9,1.3,1.5*3D
[23;80H [24;1H$GPGSV,3,1,12,01,67,090,34,28,66,322,27,11,56,060,41,30,49,219,45*7F
[23;80H [24;1H$GPGSV,3,2,12,17,34,265,50,08,23,067,29,19,14,256,35,03,13,132,25*71
[23;80H [24;1H$GPGSV,3,3,12,07,23,184,32,13,06,285,29,51,29,227,43,22,20,114,*79
[23;80H [24;1H$GPRMC,034804.000,A,4220.3061,N,07105.5236,W,1.75,207.93,020217,,,D*79
[23;80H [24;1H$GPGGA,034805.000,4220.3058,N,07105.5240,W,2,10,1.0,49.2,M,-33.8,M,,0000*57
[23;80H [24;1H$GPGSA,M,3,01,28,11,30,17,08,07,22,19,03,,,1.8,1.0,1.4*39
[23;80H [24;1H$GPRMC,034805.000,A,4220.3058,N,07105.5240,W,1.51,206.38,020217,,,D*75
[23;80H [24;1H$GPGGA,034806.000,4220.3055,N,07105.5245,W,2,09,1.1,49.2,M,-33.8,M,3.0,0000*78
[23;80H [24;1H$GPGSA,M,3,01,28,11,30,17,08,07,19,03,,,,1.8,1.1,1.5*39
[23;80H [24;1H$GPRMC,034806.000,A,4220.3055,N,07105.5245,W,1.61,207.76,020217,,,D*76
[23;80H [24;1H$GPGGA,034807.000,4220.3052,N,07105.5249,W,2,10,1.0,49.8,M,-33.8,M,4.0,0000*76
[23;80H [24;1H$GPGSA,M,3,01,28,11,30,17,08,07,22,19,03,,,1.8,1.0,1.4*39
[23;80H [24;1H$GPRMC,034807.000,A,4220.3052,N,07105.5249,W,1.52,208.28,020217,,,D*78
[23;80H [24;1H$GPGGA,034808.000,4220.3048,N,07105.5253,W,2,10,1.0,50.0,M,-33.8,M,,0000*53
[23;80H [24;1H$GPGSA,M,3,01,28,11,30,17,08,07,22,19,03,,,1.8,1.0,1.4*39
[23;80H [24;1H$GPRMC,034808.000,A,4220.3048,N,07105.5253,W,1.56,203.84,020217,,,D*7E
[23;80H [24;1H$GPGGA,034809.000,4220.3045,N,07105.5256,W,2,09,1.1,50.0,M,-3[0m(B[7m[K[?12l[?25h[?25lCTRL-A Z for help | 4800 8N1 | NOR | Minicom 2.7 | VT102 | Offline | ttyUSB0   [?12l[?25h[24;62H[2;6H[?25l[0m(B+-------------------------------------------------------------------+[3;6H|                      Minicom Command Summary                      |[4;6H|                                                                   |[5;6H|              Commands can be called by CTRL-A <key>               |[6;6H|                                                                   |[7;6H|               Main Functions                  Other Functions     |[8;6H|                                                                   |[9;6H| Dialing directory..D  run script (Go)....G | Clear Screen.......C |[10;6H| Send files.........S  Receive files......R | cOnfigure Minicom..O |[11;6H| comm Parameters....P  Add linefeed.......A | Suspend minicom....J |[12;6H| Capture on/off.....L  Hangup.............H | eXit and reset.....X |[13;6H| send break.........F  initialize Modem...M | Quit with no reset.Q |[14;6H| Terminal settings..T  run Kermit.........K | Cursor key mode....I |[15;6H| lineWrap on/off....W  local Echo on/off..E | Help screen........Z |[16;6H| Paste file.........Y  Timestamp toggle...N | scroll Back........B |[17;6H| Add Carriage Ret...U                                              |[18;6H|                                                                   |[19;6H|             Select function or press Enter for none.              |[20;6H+-------------------------------------------------------------------+[19;60H[?12l[?25h[?12l[?25h[2;1H$GPRMC,034802.000,A,4220.3067,N,07105.5225,W,1.36,217.51,020217,,,D*73    [3;1H$GPGGA,034803.000,4220.3065,N,07105.5232,W,2,09,1.1,49.0,M,-33.8,M,,0000*5[4;1H$GPGSA,M,3,01,28,11,30,17,08,07,19,03,,,,1.8,1.1,1.5*39                   [5;1H$GPRMC,034803.000,A,4220.3065,N,07105.5232,W,1.43,218.17,020217,,,D*79    [6;1H$GPGGA,034804.000,4220.3061,N,07105.5236,W,2,08,1.3,48.9,M,-33.8,M,,0000*5[7;1H$GPGSA,M,3,01,28,11,30,17,08,19,03,,,,,1.9,1.3,1.5*3D                     [8;1H$GPGSV,3,1,12,01,67,090,34,28,66,322,27,11,56,060,41,30,49,219,45*7F      [9;1H$GPGSV,3,2,12,17,34,265,50,08,23,067,29,19,14,256,35,03,13,132,25*71      [10;1H$GPGSV,3,3,12,07,23,184,32,13,06,285,29,51,29,227,43,22,20,114,*79        [11;1H$GPRMC,034804.000,A,4220.3061,N,07105.5236,W,1.75,207.93,020217,,,D*79    [12;1H$GPGGA,034805.000,4220.3058,N,07105.5240,W,2,10,1.0,49.2,M,-33.8,M,,0000*5[13;1H$GPGSA,M,3,01,28,11,30,17,08,07,22,19,03,,,1.8,1.0,1.4*39                 [14;1H$GPRMC,034805.000,A,4220.3058,N,07105.5240,W,1.51,206.38,020217,,,D*75    [15;1H$GPGGA,034806.000,4220.3055,N,07105.5245,W,2,09,1.1,49.2,M,-33.8,M,3.0,000[16;1H$GPGSA,M,3,01,28,11,30,17,08,07,19,03,,,,1.8,1.1,1.5*39                   [17;1H$GPRMC,034806.000,A,4220.3055,N,07105.5245,W,1.61,207.76,020217,,,D*76    [18;1H$GPGGA,034807.000,4220.3052,N,07105.5249,W,2,10,1.0,49.8,M,-33.8,M,4.0,000[19;1H$GPGSA,M,3,01,28,11,30,17,08,07,22,19,03,,,1.8,1.0,1.4*39                 [20;1H$GPRMC,034807.000,A,4220.3052,N,07105.5249,W,1.52,208.28,020217,,,D*78    [24;62H[0m(B[7m[8;30H[?25l[0m(B+----------------------+[9;30H|    Leave Minicom?    |[10;30H|               No     |[11;30H+----------------------+[10;51H[?25l[10;33H[0m(B[7m   Yes  [?12l[?25h[8;1H[0m(B$GPGSV,3,1,12,01,67,090,34,28,66,322,27,11,56,060,41,[9;1H$GPGSV,3,2,12,17,34,265,50,08,23,067,29,19,14,256,35,[10;1H$GPGSV,3,3,12,07,23,184,32,13,06,285,29,51,29,227,43,[11;1H$GPRMC,034804.000,A,4220.3061,N,07105.5236,W,1.75,207[24;62H[0m(B[7m[?12l[?25h[?12l[?25h[0m(B[H[2J[?12l[?25h[?1l>[!p[?3;4l[4l>